{
  "type": "FeatureCollection",
  "features": [
    {
      "type": "Feature",
      "properties": {
        "name": "Salar de Uyuni",
        "country": "Bolivia",
        "countryCode": "BO",
        "category": "natural",
        "rating": 5,
        "description": "World's largest salt flat creating perfect mirror reflections after rain"
      },
      "geometry": { "type": "Point", "coordinates": [-67.6250, -20.1338] }
    },
    {
      "type": "Feature",
      "properties": {
        "name": "Lake Titicaca (Bolivia side)",
        "country": "Bolivia",
        "countryCode": "BO",
        "category": "natural",
        "rating": 4,
        "description": "Floating reed islands of Uros people on highest navigable lake"
      },
      "geometry": { "type": "Point", "coordinates": [-69.0833, -16.0833] }
    },
    {
      "type": "Feature",
      "properties": {
        "name": "Eduardo Avaroa Reserve",
        "country": "Bolivia",
        "countryCode": "BO",
        "category": "natural",
        "rating": 4,
        "description": "Surreal high-altitude landscapes with colored lagoons and flamingos"
      },
      "geometry": { "type": "Point", "coordinates": [-67.8333, -22.4500] }
    },
    {
      "type": "Feature",
      "properties": {
        "name": "Death Road (Yungas Road)",
        "country": "Bolivia",
        "countryCode": "BO",
        "category": "extreme",
        "rating": 3,
        "description": "World's most dangerous road, now famous cycling route with dramatic drops"
      },
      "geometry": { "type": "Point", "coordinates": [-68.0333, -16.3167] }
    },
    {
      "type": "Feature",
      "properties": {
        "name": "Tiwanaku",
        "country": "Bolivia",
        "countryCode": "BO",
        "category": "landmark",
        "rating": 5,
        "description": "UNESCO Pre-Columbian archaeological site, one of oldest and highest ancient cities"
      },
      "geometry": { "type": "Point", "coordinates": [-68.6733, -16.5550] }
    },
    {
      "type": "Feature",
      "properties": {
        "name": "La Paz Cable Car System",
        "country": "Bolivia",
        "countryCode": "BO",
        "category": "viewpoint",
        "rating": 4,
        "description": "World's highest capital with spectacular cable car network over the city"
      },
      "geometry": { "type": "Point", "coordinates": [-68.1193, -16.4897] }
    },
    {
      "type": "Feature",
      "properties": {
        "name": "Sucre (White City)",
        "country": "Bolivia",
        "countryCode": "BO",
        "category": "landmark",
        "rating": 4,
        "description": "UNESCO constitutional capital with beautiful colonial whitewashed architecture"
      },
      "geometry": { "type": "Point", "coordinates": [-65.2550, -19.0196] }
    },
    {
      "type": "Feature",
      "properties": {
        "name": "Isla del Sol",
        "country": "Bolivia",
        "countryCode": "BO",
        "category": "landmark",
        "rating": 4,
        "description": "Sacred island on Lake Titicaca believed to be birthplace of Inca civilization"
      },
      "geometry": { "type": "Point", "coordinates": [-69.1833, -16.0167] }
    },
    {
      "type": "Feature",
      "properties": {
        "name": "Laguna Colorada",
        "country": "Bolivia",
        "countryCode": "BO",
        "category": "natural",
        "rating": 4,
        "description": "Red-tinted salt lake with thousands of flamingos in Eduardo Avaroa Reserve"
      },
      "geometry": { "type": "Point", "coordinates": [-67.7917, -22.2000] }
    }
  ]
}
