{
  "type": "FeatureCollection",
  "features": [
    {
      "type": "Feature",
      "properties": {
        "name": "Musandam Fjords",
        "country": "Oman",
        "countryCode": "OM",
        "category": "natural",
        "rating": 5,
        "description": "Norway of Arabia with dramatic limestone cliffs plunging into turquoise waters"
      },
      "geometry": { "type": "Point", "coordinates": [56.2667, 26.2000] }
    },
    {
      "type": "Feature",
      "properties": {
        "name": "Wadi Shab",
        "country": "Oman",
        "countryCode": "OM",
        "category": "natural",
        "rating": 4,
        "description": "Emerald pools, hidden waterfalls, and a secret cave accessible by swimming through rock passage"
      },
      "geometry": { "type": "Point", "coordinates": [59.1833, 22.8333] }
    },
    {
      "type": "Feature",
      "properties": {
        "name": "Wahiba Sands",
        "country": "Oman",
        "countryCode": "OM",
        "category": "natural",
        "rating": 3,
        "description": "Rolling golden dunes perfect for desert camping and 4x4 adventures"
      },
      "geometry": { "type": "Point", "coordinates": [58.7500, 22.1667] }
    },
    {
      "type": "Feature",
      "properties": {
        "name": "Sultan Qaboos Grand Mosque",
        "country": "Oman",
        "countryCode": "OM",
        "category": "landmark",
        "rating": 5,
        "description": "Magnificent mosque with world's largest handwoven carpet"
      },
      "geometry": { "type": "Point", "coordinates": [58.4056, 23.5953] }
    },
    {
      "type": "Feature",
      "properties": {
        "name": "Nizwa Fort",
        "country": "Oman",
        "countryCode": "OM",
        "category": "landmark",
        "rating": 5,
        "description": "Massive 17th-century fortress with 40m tower"
      },
      "geometry": { "type": "Point", "coordinates": [57.5300, 22.9333] }
    },
    {
      "type": "Feature",
      "properties": {
        "name": "Jebel Shams",
        "country": "Oman",
        "countryCode": "OM",
        "category": "natural",
        "rating": 4,
        "description": "Grand Canyon of Oman with 1,000m gorge"
      },
      "geometry": { "type": "Point", "coordinates": [57.2667, 23.2333] }
    },
    {
      "type": "Feature",
      "properties": {
        "name": "Salalah",
        "country": "Oman",
        "countryCode": "OM",
        "category": "landmark",
        "rating": 4,
        "description": "Gateway to Dhofar region. Monsoon-fed greenery, frankincense trees, and RoRo port for vehicle shipping from East Africa."
      },
      "geometry": { "type": "Point", "coordinates": [54.0924, 17.0151] }
    },
    {
      "type": "Feature",
      "properties": {
        "name": "Wadi Darbat",
        "country": "Oman",
        "countryCode": "OM",
        "category": "natural",
        "rating": 4,
        "description": "Stunning seasonal waterfall and lake in Dhofar. Green during khareef (monsoon) July-September."
      },
      "geometry": { "type": "Point", "coordinates": [54.4500, 17.1167] }
    },
    {
      "type": "Feature",
      "properties": {
        "name": "Land of Frankincense",
        "country": "Oman",
        "countryCode": "OM",
        "category": "landmark",
        "rating": 5,
        "description": "UNESCO World Heritage sites including Wadi Dawkah frankincense groves and ancient port of Al-Baleed."
      },
      "geometry": { "type": "Point", "coordinates": [54.0167, 17.0333] }
    }
  ]
}
