{
  "type": "FeatureCollection",
  "features": [
    {
      "type": "Feature",
      "properties": {
        "name": "Machu Picchu",
        "country": "Peru",
        "countryCode": "PE",
        "category": "landmark",
        "rating": 5,
        "description": "New Seven Wonders ancient Incan citadel set high in the Andes mountains"
      },
      "geometry": { "type": "Point", "coordinates": [-72.5450, -13.1631] }
    },
    {
      "type": "Feature",
      "properties": {
        "name": "Rainbow Mountain (Vinicunca)",
        "country": "Peru",
        "countryCode": "PE",
        "category": "natural",
        "rating": 5,
        "description": "Striped mountain in shades of red, lavender, and turquoise from mineral deposits"
      },
      "geometry": { "type": "Point", "coordinates": [-71.3031, -13.8700] }
    },
    {
      "type": "Feature",
      "properties": {
        "name": "Colca Canyon",
        "country": "Peru",
        "countryCode": "PE",
        "category": "natural",
        "rating": 4,
        "description": "Second-deepest canyon in the world (3,400m) with soaring Andean condors"
      },
      "geometry": { "type": "Point", "coordinates": [-71.8167, -15.5833] }
    },
    {
      "type": "Feature",
      "properties": {
        "name": "Lake Titicaca",
        "country": "Peru",
        "countryCode": "PE",
        "category": "natural",
        "rating": 4,
        "description": "World's highest navigable lake, sacred to Incas as birthplace of the sun"
      },
      "geometry": { "type": "Point", "coordinates": [-69.3347, -15.9254] }
    },
    {
      "type": "Feature",
      "properties": {
        "name": "Huacachina Oasis",
        "country": "Peru",
        "countryCode": "PE",
        "category": "natural",
        "rating": 4,
        "description": "South America's only natural desert oasis with towering sand dunes"
      },
      "geometry": { "type": "Point", "coordinates": [-75.7631, -14.0875] }
    },
    {
      "type": "Feature",
      "properties": {
        "name": "Sacred Valley",
        "country": "Peru",
        "countryCode": "PE",
        "category": "landmark",
        "rating": 4,
        "description": "Inca heartland with terraces, ruins, and traditional villages between Cusco and Machu Picchu"
      },
      "geometry": { "type": "Point", "coordinates": [-72.0500, -13.2500] }
    },
    {
      "type": "Feature",
      "properties": {
        "name": "Nazca Lines",
        "country": "Peru",
        "countryCode": "PE",
        "category": "landmark",
        "rating": 4,
        "description": "Mysterious ancient geoglyphs visible only from the air, UNESCO World Heritage"
      },
      "geometry": { "type": "Point", "coordinates": [-75.0267, -14.7392] }
    },
    {
      "type": "Feature",
      "properties": {
        "name": "Huascaran National Park",
        "country": "Peru",
        "countryCode": "PE",
        "category": "natural",
        "rating": 3,
        "description": "World's highest tropical mountain range with 600 glaciers and turquoise lakes"
      },
      "geometry": { "type": "Point", "coordinates": [-77.5000, -9.0500] }
    },
    {
      "type": "Feature",
      "properties": {
        "name": "Manu National Park",
        "country": "Peru",
        "countryCode": "PE",
        "category": "natural",
        "rating": 3,
        "description": "One of most biodiverse rainforest areas on planet, largely unexplored"
      },
      "geometry": { "type": "Point", "coordinates": [-71.5000, -11.9500] }
    }
  ]
}
