{
  "type": "FeatureCollection",
  "features": [
    {
      "type": "Feature",
      "properties": {
        "name": "Cappadocia (Goreme)",
        "country": "Turkey",
        "countryCode": "TR",
        "category": "natural",
        "rating": 5,
        "description": "Surreal landscape of fairy chimneys, cave churches, and iconic hot air balloon rides at sunrise"
      },
      "geometry": { "type": "Point", "coordinates": [34.8289, 38.6431] }
    },
    {
      "type": "Feature",
      "properties": {
        "name": "Hagia Sophia",
        "country": "Turkey",
        "countryCode": "TR",
        "category": "landmark",
        "rating": 5,
        "description": "6th-century architectural masterpiece, former cathedral and mosque, now a mosque again with stunning Byzantine mosaics"
      },
      "geometry": { "type": "Point", "coordinates": [28.9800, 41.0086] }
    },
    {
      "type": "Feature",
      "properties": {
        "name": "Pamukkale",
        "country": "Turkey",
        "countryCode": "TR",
        "category": "natural",
        "rating": 5,
        "description": "Cotton Castle travertine terraces of white calcium deposits with ancient Hierapolis spa city (UNESCO)"
      },
      "geometry": { "type": "Point", "coordinates": [29.1187, 37.9204] }
    },
    {
      "type": "Feature",
      "properties": {
        "name": "Blue Mosque (Sultan Ahmed)",
        "country": "Turkey",
        "countryCode": "TR",
        "category": "landmark",
        "rating": 5,
        "description": "Istanbul's iconic six-minaret mosque famous for its blue Iznik tile interior"
      },
      "geometry": { "type": "Point", "coordinates": [28.9768, 41.0054] }
    },
    {
      "type": "Feature",
      "properties": {
        "name": "Ephesus",
        "country": "Turkey",
        "countryCode": "TR",
        "category": "landmark",
        "rating": 5,
        "description": "Best-preserved ancient Greek-Roman city with famous Library of Celsus (UNESCO)"
      },
      "geometry": { "type": "Point", "coordinates": [27.3419, 37.9392] }
    },
    {
      "type": "Feature",
      "properties": {
        "name": "Derinkuyu Underground City",
        "country": "Turkey",
        "countryCode": "TR",
        "category": "landmark",
        "rating": 4,
        "description": "Largest excavated underground city in Cappadocia, 8 levels deep, sheltered 20,000 people"
      },
      "geometry": { "type": "Point", "coordinates": [34.7344, 38.3739] }
    },
    {
      "type": "Feature",
      "properties": {
        "name": "Mount Nemrut",
        "country": "Turkey",
        "countryCode": "TR",
        "category": "landmark",
        "rating": 4,
        "description": "2,134m summit with colossal stone head statues from 1st century BC Commagene Kingdom (UNESCO)"
      },
      "geometry": { "type": "Point", "coordinates": [38.7417, 37.9811] }
    },
    {
      "type": "Feature",
      "properties": {
        "name": "Topkapi Palace",
        "country": "Turkey",
        "countryCode": "TR",
        "category": "landmark",
        "rating": 4,
        "description": "Ottoman sultans' opulent palace complex overlooking the Bosphorus"
      },
      "geometry": { "type": "Point", "coordinates": [28.9833, 41.0115] }
    }
  ]
}
