{
  "type": "FeatureCollection",
  "features": [
    {
      "type": "Feature",
      "geometry": { "type": "Point", "coordinates": [14.4378, 50.0755] },
      "properties": { "name": "Prague", "country": "Czechia", "iso": "CZ", "source": "Route", "category": "Stop", "trip": 15, "nights": "" }
    },
    {
      "type": "Feature",
      "geometry": { "type": "Point", "coordinates": [14.4197, 50.0897] },
      "properties": { "name": "Historic Prague", "country": "Czechia", "iso": "CZ", "source": "Sight", "category": "Cultural", "score": 10, "why_notable": "Charles Bridge, Prague Castle, Old Town Square, Astronomical Clock, UNESCO" }
    },
    {
      "type": "Feature",
      "geometry": { "type": "Point", "coordinates": [14.3150, 48.8107] },
      "properties": { "name": "Český Krumlov", "country": "Czechia", "iso": "CZ", "source": "Sight", "category": "Cultural", "score": 9, "why_notable": "Fairytale castle town on Vltava river bend, UNESCO" }
    },
    {
      "type": "Feature",
      "geometry": { "type": "Point", "coordinates": [15.2667, 49.95] },
      "properties": { "name": "Kutná Hora & Sedlec Ossuary", "country": "Czechia", "iso": "CZ", "source": "Sight", "category": "Cultural", "score": 8, "why_notable": "Famous bone church with 40,000 skeletons, St. Barbara Cathedral, UNESCO" }
    },
    {
      "type": "Feature",
      "geometry": { "type": "Point", "coordinates": [14.4211, 50.0875] },
      "properties": { "name": "Atelier", "city": "Prague", "country": "Czechia", "iso": "CZ", "source": "Michelin", "category": "Restaurant", "stars": 1 }
    },
    {
      "type": "Feature",
      "geometry": { "type": "Point", "coordinates": [14.4197, 50.0875] },
      "properties": { "name": "Field", "city": "Prague", "country": "Czechia", "iso": "CZ", "source": "Michelin", "category": "Restaurant", "stars": 1 }
    }
  ]
}
