{
  "type": "FeatureCollection",
  "features": [
    {
      "type": "Feature",
      "geometry": { "type": "Point", "coordinates": [-1.6147, 49.6337] },
      "properties": { "name": "Cherbourg", "country": "France", "iso": "FR", "source": "Route", "category": "Stop", "trip": 13, "nights": "" }
    },
    {
      "type": "Feature",
      "geometry": { "type": "Point", "coordinates": [-0.3708, 49.1829] },
      "properties": { "name": "Normandy", "country": "France", "iso": "FR", "source": "Route", "category": "Stop", "trip": 13, "nights": "" }
    },
    {
      "type": "Feature",
      "geometry": { "type": "Point", "coordinates": [2.3522, 48.8566] },
      "properties": { "name": "Paris", "country": "France", "iso": "FR", "source": "Route", "category": "Stop", "trip": 13, "nights": "" }
    },
    {
      "type": "Feature",
      "geometry": { "type": "Point", "coordinates": [2.2945, 48.8584] },
      "properties": { "name": "Eiffel Tower", "country": "France", "iso": "FR", "source": "Sight", "category": "Cultural", "score": 10, "why_notable": "World's most iconic tower, symbol of Paris and France" }
    },
    {
      "type": "Feature",
      "geometry": { "type": "Point", "coordinates": [2.3376, 48.8606] },
      "properties": { "name": "Louvre Museum", "country": "France", "iso": "FR", "source": "Sight", "category": "Cultural", "score": 10, "why_notable": "World's largest and most visited museum, Mona Lisa, Venus de Milo" }
    },
    {
      "type": "Feature",
      "geometry": { "type": "Point", "coordinates": [2.1194, 48.805] },
      "properties": { "name": "Palace of Versailles", "country": "France", "iso": "FR", "source": "Sight", "category": "Cultural", "score": 10, "why_notable": "Ultimate royal palace, Hall of Mirrors, gardens, UNESCO" }
    },
    {
      "type": "Feature",
      "geometry": { "type": "Point", "coordinates": [-1.51056, 48.63556] },
      "properties": { "name": "Mont-Saint-Michel", "country": "France", "iso": "FR", "source": "Sight", "category": "Cultural", "score": 10, "why_notable": "Iconic tidal island monastery, medieval marvel, UNESCO" }
    },
    {
      "type": "Feature",
      "geometry": { "type": "Point", "coordinates": [2.3499, 48.853] },
      "properties": { "name": "Notre-Dame Cathedral", "country": "France", "iso": "FR", "source": "Sight", "category": "Cultural", "score": 9, "why_notable": "Gothic masterpiece, heart of Paris, undergoing restoration after 2019 fire" }
    },
    {
      "type": "Feature",
      "geometry": { "type": "Point", "coordinates": [-0.4, 49.35] },
      "properties": { "name": "D-Day Beaches", "country": "France", "iso": "FR", "source": "Sight", "category": "Cultural", "score": 9, "why_notable": "WWII Normandy landings, Omaha Beach, Pointe du Hoc, historic significance" }
    },
    {
      "type": "Feature",
      "geometry": { "type": "Point", "coordinates": [0.70278, 47.39889] },
      "properties": { "name": "Loire Valley Châteaux", "country": "France", "iso": "FR", "source": "Sight", "category": "Cultural", "score": 9, "why_notable": "Chambord, Chenonceau, Villandry - France's finest Renaissance castles, UNESCO" }
    },
    {
      "type": "Feature",
      "geometry": { "type": "Point", "coordinates": [2.3636, 43.2071] },
      "properties": { "name": "Carcassonne", "country": "France", "iso": "FR", "source": "Sight", "category": "Cultural", "score": 8, "why_notable": "Europe's largest medieval fortified city, UNESCO" }
    },
    {
      "type": "Feature",
      "geometry": { "type": "Point", "coordinates": [4.5353, 43.9472] },
      "properties": { "name": "Pont du Gard", "country": "France", "iso": "FR", "source": "Sight", "category": "Cultural", "score": 8, "why_notable": "Best-preserved Roman aqueduct, engineering marvel, UNESCO" }
    },
    {
      "type": "Feature",
      "geometry": { "type": "Point", "coordinates": [1.4872, 48.4475] },
      "properties": { "name": "Chartres Cathedral", "country": "France", "iso": "FR", "source": "Sight", "category": "Cultural", "score": 8, "why_notable": "Finest Gothic cathedral, medieval stained glass, UNESCO" }
    },
    {
      "type": "Feature",
      "geometry": { "type": "Point", "coordinates": [1.17, 45.0575] },
      "properties": { "name": "Lascaux Cave Paintings", "country": "France", "iso": "FR", "source": "Sight", "category": "Cultural", "score": 8, "why_notable": "17,000-year-old prehistoric art, replica open to visitors, UNESCO" }
    },
    {
      "type": "Feature",
      "geometry": { "type": "Point", "coordinates": [6.2, 43.8] },
      "properties": { "name": "Gorges du Verdon", "country": "France", "iso": "FR", "source": "Sight", "category": "Natural", "score": 8, "why_notable": "Europe's Grand Canyon, turquoise waters, dramatic limestone cliffs" }
    },
    {
      "type": "Feature",
      "geometry": { "type": "Point", "coordinates": [6.8652, 45.8326] },
      "properties": { "name": "Mont Blanc & Chamonix", "country": "France", "iso": "FR", "source": "Sight", "category": "Natural", "score": 8, "why_notable": "Western Europe's highest peak, alpine scenery, Aiguille du Midi" }
    },
    {
      "type": "Feature",
      "geometry": { "type": "Point", "coordinates": [4.8333, 45.7672] },
      "properties": { "name": "Historic Lyon", "country": "France", "iso": "FR", "source": "Sight", "category": "Cultural", "score": 8, "why_notable": "Roman and Renaissance heritage, France's gastronomic capital, UNESCO" }
    },
    {
      "type": "Feature",
      "geometry": { "type": "Point", "coordinates": [4.8061, 43.9528] },
      "properties": { "name": "Avignon & Papal Palace", "country": "France", "iso": "FR", "source": "Sight", "category": "Cultural", "score": 8, "why_notable": "14th-century papal seat, largest Gothic palace, UNESCO" }
    },
    {
      "type": "Feature",
      "geometry": { "type": "Point", "coordinates": [1.2667, 49.0833] },
      "properties": { "name": "Giverny - Monet's Garden", "country": "France", "iso": "FR", "source": "Sight", "category": "Cultural", "score": 8, "why_notable": "Impressionist master's home and gardens, water lilies inspiration" }
    },
    {
      "type": "Feature",
      "geometry": { "type": "Point", "coordinates": [7.5008, 43.7848] },
      "properties": { "name": "Mirazur", "city": "Menton", "country": "France", "iso": "FR", "source": "Michelin", "category": "Restaurant", "stars": 3 }
    },
    {
      "type": "Feature",
      "geometry": { "type": "Point", "coordinates": [2.3284, 48.8566] },
      "properties": { "name": "Guy Savoy", "city": "Paris", "country": "France", "iso": "FR", "source": "Michelin", "category": "Restaurant", "stars": 3 }
    },
    {
      "type": "Feature",
      "geometry": { "type": "Point", "coordinates": [2.3155, 48.8559] },
      "properties": { "name": "L'Arpège", "city": "Paris", "country": "France", "iso": "FR", "source": "Michelin", "category": "Restaurant", "stars": 3 }
    },
    {
      "type": "Feature",
      "geometry": { "type": "Point", "coordinates": [2.3016, 48.8663] },
      "properties": { "name": "Le Cinq", "city": "Paris", "country": "France", "iso": "FR", "source": "Michelin", "category": "Restaurant", "stars": 3 }
    },
    {
      "type": "Feature",
      "geometry": { "type": "Point", "coordinates": [2.304, 48.866] },
      "properties": { "name": "Alain Ducasse au Plaza Athénée", "city": "Paris", "country": "France", "iso": "FR", "source": "Michelin", "category": "Restaurant", "stars": 3 }
    },
    {
      "type": "Feature",
      "geometry": { "type": "Point", "coordinates": [2.3616, 48.8535] },
      "properties": { "name": "L'Ambroisie", "city": "Paris", "country": "France", "iso": "FR", "source": "Michelin", "category": "Restaurant", "stars": 3 }
    },
    {
      "type": "Feature",
      "geometry": { "type": "Point", "coordinates": [5.3536, 43.2833] },
      "properties": { "name": "Le Petit Nice", "city": "Marseille", "country": "France", "iso": "FR", "source": "Michelin", "category": "Restaurant", "stars": 3 }
    },
    {
      "type": "Feature",
      "geometry": { "type": "Point", "coordinates": [6.6499, 43.2749] },
      "properties": { "name": "La Vague d'Or", "city": "Saint-Tropez", "country": "France", "iso": "FR", "source": "Michelin", "category": "Restaurant", "stars": 3 }
    },
    {
      "type": "Feature",
      "geometry": { "type": "Point", "coordinates": [4.7528, 46.9078] },
      "properties": { "name": "Maison Lameloise", "city": "Chagny", "country": "France", "iso": "FR", "source": "Michelin", "category": "Restaurant", "stars": 3 }
    },
    {
      "type": "Feature",
      "geometry": { "type": "Point", "coordinates": [6.5039, 45.3792] },
      "properties": { "name": "La Bouitte", "city": "Saint-Martin-de-Belleville", "country": "France", "iso": "FR", "source": "Michelin", "category": "Restaurant", "stars": 3 }
    },
    {
      "type": "Feature",
      "geometry": { "type": "Point", "coordinates": [6.6178, 45.8567] },
      "properties": { "name": "Flocons de Sel", "city": "Megève", "country": "France", "iso": "FR", "source": "Michelin", "category": "Restaurant", "stars": 3 }
    },
    {
      "type": "Feature",
      "geometry": { "type": "Point", "coordinates": [4.4389, 45.1358] },
      "properties": { "name": "Régis et Jacques Marcon", "city": "Saint-Bonnet-le-Froid", "country": "France", "iso": "FR", "source": "Michelin", "category": "Restaurant", "stars": 3 }
    },
    {
      "type": "Feature",
      "geometry": { "type": "Point", "coordinates": [2.3586, 48.8578] },
      "properties": { "name": "L'As du Fallafel", "city": "Paris", "country": "France", "iso": "FR", "source": "LocalEatery", "category": "Restaurant", "why_notable": "Best falafel in Marais" }
    },
    {
      "type": "Feature",
      "geometry": { "type": "Point", "coordinates": [2.3647, 48.8572] },
      "properties": { "name": "Chez Janou", "city": "Paris", "country": "France", "iso": "FR", "source": "LocalEatery", "category": "Restaurant", "why_notable": "Famous chocolate mousse" }
    },
    {
      "type": "Feature",
      "geometry": { "type": "Point", "coordinates": [2.3331, 48.8542] },
      "properties": { "name": "Cafe de Flore", "city": "Paris", "country": "France", "iso": "FR", "source": "LocalEatery", "category": "Restaurant", "why_notable": "Literary cafe since 1887" }
    },
    {
      "type": "Feature",
      "geometry": { "type": "Point", "coordinates": [2.3286, 48.8678] },
      "properties": { "name": "The Ritz Paris", "city": "Paris", "country": "France", "iso": "FR", "source": "Hotel", "category": "Accommodation", "why_notable": "Coco Chanel's home, epitome of Parisian luxury" }
    },
    {
      "type": "Feature",
      "geometry": { "type": "Point", "coordinates": [2.304, 48.866] },
      "properties": { "name": "Hôtel Plaza Athénée", "city": "Paris", "country": "France", "iso": "FR", "source": "Hotel", "category": "Accommodation", "why_notable": "Avenue Montaigne landmark, Alain Ducasse restaurant" }
    },
    {
      "type": "Feature",
      "geometry": { "type": "Point", "coordinates": [7.2594, 43.6949] },
      "properties": { "name": "Hotel Negresco", "city": "Nice", "country": "France", "iso": "FR", "source": "Hotel", "category": "Accommodation", "why_notable": "Belle Époque landmark on Promenade des Anglais" }
    }
  ]
}
