{
  "type": "FeatureCollection",
  "features": [
    {
      "type": "Feature",
      "geometry": { "type": "Point", "coordinates": [-1.4044, 50.9097] },
      "properties": { "name": "Southampton", "country": "UK", "iso": "GB", "source": "Route", "category": "Stop", "trip": 13, "nights": "" }
    },
    {
      "type": "Feature",
      "geometry": { "type": "Point", "coordinates": [-0.1278, 51.5074] },
      "properties": { "name": "London", "country": "UK", "iso": "GB", "source": "Route", "category": "Stop", "trip": 13, "nights": "" }
    },
    {
      "type": "Feature",
      "geometry": { "type": "Point", "coordinates": [-2.3599, 51.3758] },
      "properties": { "name": "Bath", "country": "UK", "iso": "GB", "source": "Route", "category": "Stop", "trip": 13, "nights": "" }
    },
    {
      "type": "Feature",
      "geometry": { "type": "Point", "coordinates": [-3.0886, 54.4609] },
      "properties": { "name": "Lake District", "country": "UK", "iso": "GB", "source": "Route", "category": "Stop", "trip": 13, "nights": "" }
    },
    {
      "type": "Feature",
      "geometry": { "type": "Point", "coordinates": [-3.1883, 55.9533] },
      "properties": { "name": "Edinburgh", "country": "UK", "iso": "GB", "source": "Route", "category": "Stop", "trip": 13, "nights": "" }
    },
    {
      "type": "Feature",
      "geometry": { "type": "Point", "coordinates": [-6.2293, 57.2736] },
      "properties": { "name": "Isle of Skye", "country": "UK", "iso": "GB", "source": "Route", "category": "Stop", "trip": 13, "nights": "" }
    },
    {
      "type": "Feature",
      "geometry": { "type": "Point", "coordinates": [-5.0173, 54.9727] },
      "properties": { "name": "Cairnryan", "country": "UK", "iso": "GB", "source": "Route", "category": "Stop", "trip": 13, "nights": "" }
    },
    {
      "type": "Feature",
      "geometry": { "type": "Point", "coordinates": [-5.9301, 54.5973] },
      "properties": { "name": "Belfast", "country": "UK", "iso": "GB", "source": "Route", "category": "Stop", "trip": 13, "nights": "" }
    },
    {
      "type": "Feature",
      "geometry": { "type": "Point", "coordinates": [-6.5117, 55.2408] },
      "properties": { "name": "Giants Causeway", "country": "UK", "iso": "GB", "source": "Route", "category": "Stop", "trip": 13, "nights": "" }
    },
    {
      "type": "Feature",
      "geometry": { "type": "Point", "coordinates": [-1.8253, 51.1789] },
      "properties": { "name": "Stonehenge", "country": "UK", "iso": "GB", "source": "Sight", "category": "Cultural", "score": 10, "why_notable": "Prehistoric stone circle, 5,000 years old, UNESCO, England's most iconic ancient monument" }
    },
    {
      "type": "Feature",
      "geometry": { "type": "Point", "coordinates": [-0.0761, 51.5081] },
      "properties": { "name": "Tower of London", "country": "UK", "iso": "GB", "source": "Sight", "category": "Cultural", "score": 10, "why_notable": "Historic fortress, Crown Jewels, Beefeaters, 1,000 years of history, UNESCO" }
    },
    {
      "type": "Feature",
      "geometry": { "type": "Point", "coordinates": [-0.1269, 51.5194] },
      "properties": { "name": "British Museum", "country": "UK", "iso": "GB", "source": "Sight", "category": "Cultural", "score": 10, "why_notable": "World's greatest museum of human history, Rosetta Stone, Elgin Marbles" }
    },
    {
      "type": "Feature",
      "geometry": { "type": "Point", "coordinates": [-3.2, 55.9486] },
      "properties": { "name": "Edinburgh Castle", "country": "UK", "iso": "GB", "source": "Sight", "category": "Cultural", "score": 10, "why_notable": "Scotland's most famous castle, dominates city skyline, Scottish Crown Jewels" }
    },
    {
      "type": "Feature",
      "geometry": { "type": "Point", "coordinates": [-6.4853, 55.25] },
      "properties": { "name": "Giant's Causeway", "country": "UK", "iso": "GB", "source": "Sight", "category": "Natural", "score": 9, "why_notable": "40,000 interlocking basalt columns, geological wonder, UNESCO" }
    },
    {
      "type": "Feature",
      "geometry": { "type": "Point", "coordinates": [-3.0824, 54.4766] },
      "properties": { "name": "The Lake District", "country": "UK", "iso": "GB", "source": "Sight", "category": "Natural", "score": 9, "why_notable": "Romantic poets' landscape, England's most beautiful lakes and fells, UNESCO" }
    },
    {
      "type": "Feature",
      "geometry": { "type": "Point", "coordinates": [-2.3586, 51.3814] },
      "properties": { "name": "City of Bath", "country": "UK", "iso": "GB", "source": "Sight", "category": "Cultural", "score": 9, "why_notable": "Roman Baths, Georgian architecture, Jane Austen's city, UNESCO" }
    },
    {
      "type": "Feature",
      "geometry": { "type": "Point", "coordinates": [-0.1287, 51.4997] },
      "properties": { "name": "Westminster Abbey & Palace", "country": "UK", "iso": "GB", "source": "Sight", "category": "Cultural", "score": 9, "why_notable": "Coronation church, Big Ben, Parliament, heart of British democracy, UNESCO" }
    },
    {
      "type": "Feature",
      "geometry": { "type": "Point", "coordinates": [-3.2167, 55.95] },
      "properties": { "name": "Edinburgh Old & New Towns", "country": "UK", "iso": "GB", "source": "Sight", "category": "Cultural", "score": 9, "why_notable": "Medieval and Georgian contrasts, Royal Mile, UNESCO" }
    },
    {
      "type": "Feature",
      "geometry": { "type": "Point", "coordinates": [-2.6, 55.0] },
      "properties": { "name": "Hadrian's Wall", "country": "UK", "iso": "GB", "source": "Sight", "category": "Cultural", "score": 8, "why_notable": "Roman Empire's northern frontier, 73 miles across England, UNESCO" }
    },
    {
      "type": "Feature",
      "geometry": { "type": "Point", "coordinates": [-6.2293, 57.2736] },
      "properties": { "name": "Isle of Skye", "country": "UK", "iso": "GB", "source": "Sight", "category": "Natural", "score": 8, "why_notable": "Dramatic landscapes, Old Man of Storr, Fairy Pools, Scottish Highlands beauty" }
    },
    {
      "type": "Feature",
      "geometry": { "type": "Point", "coordinates": [1.0833, 51.28] },
      "properties": { "name": "Canterbury Cathedral", "country": "UK", "iso": "GB", "source": "Sight", "category": "Cultural", "score": 8, "why_notable": "Mother church of Anglicanism, Becket's martyrdom site, UNESCO" }
    },
    {
      "type": "Feature",
      "geometry": { "type": "Point", "coordinates": [-1.0803, 53.9583] },
      "properties": { "name": "York Minster", "country": "UK", "iso": "GB", "source": "Sight", "category": "Cultural", "score": 8, "why_notable": "England's largest medieval cathedral, stunning stained glass" }
    },
    {
      "type": "Feature",
      "geometry": { "type": "Point", "coordinates": [-1.7, 51.85] },
      "properties": { "name": "The Cotswolds", "country": "UK", "iso": "GB", "source": "Sight", "category": "Cultural", "score": 8, "why_notable": "Quintessential English countryside, honey-stone villages" }
    },
    {
      "type": "Feature",
      "geometry": { "type": "Point", "coordinates": [-1.3614, 51.8419] },
      "properties": { "name": "Blenheim Palace", "country": "UK", "iso": "GB", "source": "Sight", "category": "Cultural", "score": 8, "why_notable": "Baroque masterpiece, Churchill's birthplace, UNESCO" }
    },
    {
      "type": "Feature",
      "geometry": { "type": "Point", "coordinates": [-1.25, 51.75] },
      "properties": { "name": "Oxford & Cambridge", "country": "UK", "iso": "GB", "source": "Sight", "category": "Cultural", "score": 8, "why_notable": "World's most famous university cities, centuries of academic heritage" }
    },
    {
      "type": "Feature",
      "geometry": { "type": "Point", "coordinates": [-4.0, 53.1] },
      "properties": { "name": "Snowdonia", "country": "UK", "iso": "GB", "source": "Sight", "category": "Natural", "score": 8, "why_notable": "Wales' highest peak, dramatic mountains and lakes" }
    },
    {
      "type": "Feature",
      "geometry": { "type": "Point", "coordinates": [-0.6047, 51.4839] },
      "properties": { "name": "Windsor Castle", "country": "UK", "iso": "GB", "source": "Sight", "category": "Cultural", "score": 8, "why_notable": "World's oldest and largest occupied castle, royal residence" }
    },
    {
      "type": "Feature",
      "geometry": { "type": "Point", "coordinates": [-3.1889, 58.996] },
      "properties": { "name": "Skara Brae & Orkney", "country": "UK", "iso": "GB", "source": "Sight", "category": "Cultural", "score": 8, "why_notable": "5,000-year-old Neolithic village, Ring of Brodgar, UNESCO" }
    },
    {
      "type": "Feature",
      "geometry": { "type": "Point", "coordinates": [-0.7016, 51.5082] },
      "properties": { "name": "The Fat Duck", "city": "Bray", "country": "UK", "iso": "GB", "source": "Michelin", "category": "Restaurant", "stars": 3 }
    },
    {
      "type": "Feature",
      "geometry": { "type": "Point", "coordinates": [-0.1636, 51.4853] },
      "properties": { "name": "Restaurant Gordon Ramsay", "city": "London", "country": "UK", "iso": "GB", "source": "Michelin", "category": "Restaurant", "stars": 3 }
    },
    {
      "type": "Feature",
      "geometry": { "type": "Point", "coordinates": [-0.1956, 51.5065] },
      "properties": { "name": "Core by Clare Smyth", "city": "London", "country": "UK", "iso": "GB", "source": "Michelin", "category": "Restaurant", "stars": 3 }
    },
    {
      "type": "Feature",
      "geometry": { "type": "Point", "coordinates": [-0.2013, 51.5155] },
      "properties": { "name": "The Ledbury", "city": "London", "country": "UK", "iso": "GB", "source": "Michelin", "category": "Restaurant", "stars": 3 }
    },
    {
      "type": "Feature",
      "geometry": { "type": "Point", "coordinates": [-0.1523, 51.5074] },
      "properties": { "name": "Alain Ducasse at The Dorchester", "city": "London", "country": "UK", "iso": "GB", "source": "Michelin", "category": "Restaurant", "stars": 3 }
    },
    {
      "type": "Feature",
      "geometry": { "type": "Point", "coordinates": [-2.9547, 54.2136] },
      "properties": { "name": "L'Enclume", "city": "Cartmel", "country": "UK", "iso": "GB", "source": "Michelin", "category": "Restaurant", "stars": 2 }
    },
    {
      "type": "Feature",
      "geometry": { "type": "Point", "coordinates": [-0.1474, 51.5126] },
      "properties": { "name": "Claridge's", "city": "London", "country": "UK", "iso": "GB", "source": "Hotel", "category": "Accommodation", "why_notable": "Art deco masterpiece, royal favorite" }
    },
    {
      "type": "Feature",
      "geometry": { "type": "Point", "coordinates": [-0.1205, 51.51] },
      "properties": { "name": "The Savoy", "city": "London", "country": "UK", "iso": "GB", "source": "Hotel", "category": "Accommodation", "why_notable": "Pioneer of luxury hospitality, Thames views" }
    }
  ]
}
