{
  "type": "FeatureCollection",
  "features": [
    {
      "type": "Feature",
      "geometry": { "type": "Point", "coordinates": [-6.2603, 53.3498] },
      "properties": { "name": "Dublin", "country": "Ireland", "iso": "IE", "source": "Route", "category": "Stop", "trip": 13, "nights": "" }
    },
    {
      "type": "Feature",
      "geometry": { "type": "Point", "coordinates": [-9.7046, 51.9611] },
      "properties": { "name": "Ring of Kerry", "country": "Ireland", "iso": "IE", "source": "Route", "category": "Stop", "trip": 13, "nights": "" }
    },
    {
      "type": "Feature",
      "geometry": { "type": "Point", "coordinates": [-8.4863, 51.8969] },
      "properties": { "name": "Cork", "country": "Ireland", "iso": "IE", "source": "Route", "category": "Stop", "trip": 13, "nights": "" }
    },
    {
      "type": "Feature",
      "geometry": { "type": "Point", "coordinates": [-6.3389, 52.2544] },
      "properties": { "name": "Rosslare", "country": "Ireland", "iso": "IE", "source": "Route", "category": "Stop", "trip": 13, "nights": "" }
    },
    {
      "type": "Feature",
      "geometry": { "type": "Point", "coordinates": [-9.4262, 52.9716] },
      "properties": { "name": "Cliffs of Moher", "country": "Ireland", "iso": "IE", "source": "Sight", "category": "Natural", "score": 9, "why_notable": "Iconic 214m sea cliffs, dramatic Atlantic views, Ireland's most-visited natural site" }
    },
    {
      "type": "Feature",
      "geometry": { "type": "Point", "coordinates": [-9.7046, 51.9611] },
      "properties": { "name": "Ring of Kerry", "country": "Ireland", "iso": "IE", "source": "Sight", "category": "Natural", "score": 8, "why_notable": "Quintessential Irish coastal drive, mountains, lakes, villages" }
    },
    {
      "type": "Feature",
      "geometry": { "type": "Point", "coordinates": [-10.5386, 51.7719] },
      "properties": { "name": "Skellig Michael", "country": "Ireland", "iso": "IE", "source": "Sight", "category": "Cultural", "score": 8, "why_notable": "6th-century monastery on dramatic rock island, Star Wars filming, UNESCO" }
    },
    {
      "type": "Feature",
      "geometry": { "type": "Point", "coordinates": [-6.45, 53.6917] },
      "properties": { "name": "Newgrange (Brú na Bóinne)", "country": "Ireland", "iso": "IE", "source": "Sight", "category": "Cultural", "score": 8, "why_notable": "5,000-year-old passage tomb, older than pyramids, winter solstice alignment, UNESCO" }
    },
    {
      "type": "Feature",
      "geometry": { "type": "Point", "coordinates": [-6.2546, 53.3439] },
      "properties": { "name": "Book of Kells - Trinity College", "country": "Ireland", "iso": "IE", "source": "Sight", "category": "Cultural", "score": 8, "why_notable": "9th-century illuminated manuscript, masterpiece of Western calligraphy" }
    }
  ]
}
