{
  "type": "FeatureCollection",
  "features": [
    {
      "type": "Feature",
      "geometry": { "type": "Point", "coordinates": [74.8723, 31.634] },
      "properties": { "name": "Amritsar", "country": "India", "iso": "IN", "source": "Route", "category": "Stop", "trip": 1, "nights": "" }
    },
    {
      "type": "Feature",
      "geometry": { "type": "Point", "coordinates": [77.1025, 28.7041] },
      "properties": { "name": "Delhi", "country": "India", "iso": "IN", "source": "Route", "category": "Stop", "trip": 1, "nights": "" }
    },
    {
      "type": "Feature",
      "geometry": { "type": "Point", "coordinates": [75.7873, 26.9124] },
      "properties": { "name": "Jaipur", "country": "India", "iso": "IN", "source": "Route", "category": "Stop", "trip": 1, "nights": "" }
    },
    {
      "type": "Feature",
      "geometry": { "type": "Point", "coordinates": [73.0243, 26.2389] },
      "properties": { "name": "Jodhpur", "country": "India", "iso": "IN", "source": "Route", "category": "Stop", "trip": 1, "nights": "" }
    },
    {
      "type": "Feature",
      "geometry": { "type": "Point", "coordinates": [73.7125, 24.5854] },
      "properties": { "name": "Udaipur", "country": "India", "iso": "IN", "source": "Route", "category": "Stop", "trip": 1, "nights": "" }
    },
    {
      "type": "Feature",
      "geometry": { "type": "Point", "coordinates": [78.0081, 27.1767] },
      "properties": { "name": "Agra", "country": "India", "iso": "IN", "source": "Route", "category": "Stop", "trip": 2, "nights": "" }
    },
    {
      "type": "Feature",
      "geometry": { "type": "Point", "coordinates": [82.9913, 25.3176] },
      "properties": { "name": "Varanasi", "country": "India", "iso": "IN", "source": "Route", "category": "Stop", "trip": 2, "nights": "" }
    },
    {
      "type": "Feature",
      "geometry": { "type": "Point", "coordinates": [72.8777, 19.076] },
      "properties": { "name": "Mumbai", "country": "India", "iso": "IN", "source": "Route", "category": "Stop", "trip": 2, "nights": "" }
    },
    {
      "type": "Feature",
      "geometry": { "type": "Point", "coordinates": [74.124, 15.2993] },
      "properties": { "name": "Goa", "country": "India", "iso": "IN", "source": "Route", "category": "Stop", "trip": 2, "nights": "" }
    },
    {
      "type": "Feature",
      "geometry": { "type": "Point", "coordinates": [76.2673, 9.9312] },
      "properties": { "name": "Kochi", "country": "India", "iso": "IN", "source": "Route", "category": "Stop", "trip": 2, "nights": "" }
    },
    {
      "type": "Feature",
      "geometry": { "type": "Point", "coordinates": [80.2707, 13.0827] },
      "properties": { "name": "Chennai", "country": "India", "iso": "IN", "source": "Route", "category": "Stop", "trip": 2, "nights": "" }
    },
    {
      "type": "Feature",
      "geometry": { "type": "Point", "coordinates": [88.3639, 22.5726] },
      "properties": { "name": "Kolkata", "country": "India", "iso": "IN", "source": "Route", "category": "Stop", "trip": 2, "nights": "" }
    },
    {
      "type": "Feature",
      "geometry": { "type": "Point", "coordinates": [88.2627, 27.041] },
      "properties": { "name": "Darjeeling", "country": "India", "iso": "IN", "source": "Route", "category": "Stop", "trip": 2, "nights": "" }
    },
    {
      "type": "Feature",
      "geometry": { "type": "Point", "coordinates": [78.0422, 27.1742] },
      "properties": { "name": "Taj Mahal", "country": "India", "iso": "IN", "source": "Sight", "category": "Cultural", "score": 10, "why_notable": "World's most beautiful building, monument to love, Shah Jahan's masterpiece, UNESCO" }
    },
    {
      "type": "Feature",
      "geometry": { "type": "Point", "coordinates": [83.0, 25.3] },
      "properties": { "name": "Varanasi Ghats", "country": "India", "iso": "IN", "source": "Sight", "category": "Cultural", "score": 9, "why_notable": "Oldest living city, sacred Ganges rituals, Hindu cremation ghats, spiritual heart of India" }
    },
    {
      "type": "Feature",
      "geometry": { "type": "Point", "coordinates": [74.8765, 31.62] },
      "properties": { "name": "Golden Temple (Harmandir Sahib)", "country": "India", "iso": "IN", "source": "Sight", "category": "Cultural", "score": 9, "why_notable": "Holiest Sikh shrine, gold-covered temple, community kitchen feeds 100,000 daily" }
    },
    {
      "type": "Feature",
      "geometry": { "type": "Point", "coordinates": [75.8, 26.9] },
      "properties": { "name": "Rajasthan - Jaipur, Jodhpur, Udaipur", "country": "India", "iso": "IN", "source": "Sight", "category": "Cultural", "score": 9, "why_notable": "Pink, Blue and White cities, maharaja palaces, Amber Fort, desert forts, UNESCO" }
    },
    {
      "type": "Feature",
      "geometry": { "type": "Point", "coordinates": [76.3, 9.5] },
      "properties": { "name": "Kerala Backwaters", "country": "India", "iso": "IN", "source": "Sight", "category": "Natural", "score": 9, "why_notable": "Palm-fringed waterways, houseboats, traditional life, India's most serene landscape" }
    },
    {
      "type": "Feature",
      "geometry": { "type": "Point", "coordinates": [75.7, 20.5] },
      "properties": { "name": "Ajanta & Ellora Caves", "country": "India", "iso": "IN", "source": "Sight", "category": "Cultural", "score": 8, "why_notable": "2,000-year-old Buddhist/Hindu rock-cut temples, finest ancient paintings, UNESCO" }
    },
    {
      "type": "Feature",
      "geometry": { "type": "Point", "coordinates": [76.4717, 15.3144] },
      "properties": { "name": "Hampi", "country": "India", "iso": "IN", "source": "Sight", "category": "Cultural", "score": 8, "why_notable": "Ruined Vijayanagar capital, boulder-strewn landscape, temple architecture, UNESCO" }
    },
    {
      "type": "Feature",
      "geometry": { "type": "Point", "coordinates": [79.9222, 24.8522] },
      "properties": { "name": "Khajuraho Temples", "country": "India", "iso": "IN", "source": "Sight", "category": "Cultural", "score": 8, "why_notable": "Erotic temple sculptures, Hindu and Jain architecture, UNESCO" }
    },
    {
      "type": "Feature",
      "geometry": { "type": "Point", "coordinates": [77.6, 34.15] },
      "properties": { "name": "Ladakh", "country": "India", "iso": "IN", "source": "Sight", "category": "Natural", "score": 8, "why_notable": "High-altitude desert, Tibetan Buddhist monasteries, Himalayan passes" }
    },
    { "type": "Feature", "geometry": { "type": "Point", "coordinates": [88.27, 27.04] }, "properties": { "name": "Darjeeling & Tiger Hill", "country": "India", "iso": "IN", "source": "Sight", "category": "Natural", "score": 8, "why_notable": "Himalayan sunrise views, tea plantations, toy train, Kanchenjunga panorama" } },
    { "type": "Feature", "geometry": { "type": "Point", "coordinates": [70.9, 26.92] }, "properties": { "name": "Jaisalmer", "country": "India", "iso": "IN", "source": "Sight", "category": "Cultural", "score": 8, "why_notable": "Golden City rising from Thar Desert, living fort, camel safaris" } },
    { "type": "Feature", "geometry": { "type": "Point", "coordinates": [76.5, 25.75] }, "properties": { "name": "Ranthambore National Park", "country": "India", "iso": "IN", "source": "Sight", "category": "Natural", "score": 8, "why_notable": "Wild tigers among ancient ruins, best tiger spotting in India" } },
    { "type": "Feature", "geometry": { "type": "Point", "coordinates": [72.88, 19.04] }, "properties": { "name": "Mumbai & Gateway of India", "country": "India", "iso": "IN", "source": "Sight", "category": "Cultural", "score": 8, "why_notable": "Iconic arch, colonial architecture, Dharavi, vibrant Bollywood city" } },
    { "type": "Feature", "geometry": { "type": "Point", "coordinates": [79.51, 11.75] }, "properties": { "name": "Temples of Tamil Nadu", "country": "India", "iso": "IN", "source": "Sight", "category": "Cultural", "score": 8, "why_notable": "Meenakshi Temple Madurai, Brihadeeswarar, Dravidian architecture, UNESCO" } },
    {
      "type": "Feature",
      "geometry": { "type": "Point", "coordinates": [77.1859, 28.5987] },
      "properties": { "name": "Indian Accent", "city": "New Delhi", "country": "India", "iso": "IN", "source": "Michelin", "category": "Restaurant", "stars": 3 }
    },
    {
      "type": "Feature",
      "geometry": { "type": "Point", "coordinates": [77.234, 28.6506] },
      "properties": { "name": "Karim's", "city": "Delhi", "country": "India", "iso": "IN", "source": "LocalEatery", "category": "Restaurant", "why_notable": "Mughlai cuisine since 1913, near Jama Masjid" }
    },
    {
      "type": "Feature",
      "geometry": { "type": "Point", "coordinates": [77.23, 28.656] },
      "properties": { "name": "Paranthe Wali Gali", "city": "Delhi", "country": "India", "iso": "IN", "source": "LocalEatery", "category": "Restaurant", "why_notable": "Historic paratha alley since 1872" }
    },
    {
      "type": "Feature",
      "geometry": { "type": "Point", "coordinates": [72.8317, 18.9217] },
      "properties": { "name": "Leopold Cafe", "city": "Mumbai", "country": "India", "iso": "IN", "source": "LocalEatery", "category": "Restaurant", "why_notable": "Mumbai institution since 1871, Shantaram fame" }
    },
    {
      "type": "Feature",
      "geometry": { "type": "Point", "coordinates": [72.835, 18.934] },
      "properties": { "name": "Britannia & Co", "city": "Mumbai", "country": "India", "iso": "IN", "source": "LocalEatery", "category": "Restaurant", "why_notable": "Legendary Parsi cafe, berry pulao" }
    },
    {
      "type": "Feature",
      "geometry": { "type": "Point", "coordinates": [83.0097, 25.3103] },
      "properties": { "name": "Blue Lassi", "city": "Varanasi", "country": "India", "iso": "IN", "source": "LocalEatery", "category": "Restaurant", "why_notable": "Famous lassi shop since 1925" }
    },
    {
      "type": "Feature",
      "geometry": { "type": "Point", "coordinates": [73.6815, 24.5732] },
      "properties": { "name": "The Oberoi Udaivilas", "city": "Udaipur", "country": "India", "iso": "IN", "source": "Hotel", "category": "Accommodation", "why_notable": "Palatial lakeside resort, Mewar architecture" }
    },
    {
      "type": "Feature",
      "geometry": { "type": "Point", "coordinates": [73.6805, 24.5755] },
      "properties": { "name": "Taj Lake Palace", "city": "Udaipur", "country": "India", "iso": "IN", "source": "Hotel", "category": "Accommodation", "why_notable": "Floating palace on Lake Pichola" }
    },
    {
      "type": "Feature",
      "geometry": { "type": "Point", "coordinates": [72.8332, 18.9217] },
      "properties": { "name": "The Taj Mahal Palace", "city": "Mumbai", "country": "India", "iso": "IN", "source": "Hotel", "category": "Accommodation", "why_notable": "Gateway of India landmark, Indian hospitality icon" }
    }
  ]
}
