{
  "type": "FeatureCollection",
  "features": [
    {
      "type": "Feature",
      "geometry": { "type": "Point", "coordinates": [16.8719, 41.1171] },
      "properties": { "name": "Bari", "country": "Italy", "iso": "IT", "source": "Route", "category": "Stop", "trip": 17, "nights": "" }
    },
    {
      "type": "Feature",
      "geometry": { "type": "Point", "coordinates": [12.4964, 41.9028] },
      "properties": { "name": "Rome", "country": "Italy", "iso": "IT", "source": "Route", "category": "Stop", "trip": 17, "nights": "" }
    },
    {
      "type": "Feature",
      "geometry": { "type": "Point", "coordinates": [12.4922, 41.8902] },
      "properties": { "name": "Colosseum & Roman Forum", "country": "Italy", "iso": "IT", "source": "Sight", "category": "Cultural", "score": 10, "why_notable": "Iconic ancient amphitheater, gladiator arena, symbol of Imperial Rome, UNESCO" }
    },
    {
      "type": "Feature",
      "geometry": { "type": "Point", "coordinates": [12.4534, 41.9029] },
      "properties": { "name": "Vatican City & Sistine Chapel", "country": "Italy", "iso": "IT", "source": "Sight", "category": "Cultural", "score": 10, "why_notable": "Michelangelo's ceiling, St. Peter's Basilica, world's smallest country, UNESCO" }
    },
    {
      "type": "Feature",
      "geometry": { "type": "Point", "coordinates": [12.3389, 45.4343] },
      "properties": { "name": "Venice", "country": "Italy", "iso": "IT", "source": "Sight", "category": "Cultural", "score": 10, "why_notable": "Floating city, canals, Piazza San Marco, gondolas, Rialto, unique in the world, UNESCO" }
    },
    {
      "type": "Feature",
      "geometry": { "type": "Point", "coordinates": [11.2558, 43.7696] },
      "properties": { "name": "Florence & Uffizi Gallery", "country": "Italy", "iso": "IT", "source": "Sight", "category": "Cultural", "score": 10, "why_notable": "Renaissance birthplace, Duomo, Botticelli, Michelangelo's David, UNESCO" }
    },
    {
      "type": "Feature",
      "geometry": { "type": "Point", "coordinates": [14.4833, 40.75] },
      "properties": { "name": "Pompeii & Herculaneum", "country": "Italy", "iso": "IT", "source": "Sight", "category": "Cultural", "score": 10, "why_notable": "Roman cities frozen by Vesuvius 79 AD, unparalleled ancient life snapshot, UNESCO" }
    },
    {
      "type": "Feature",
      "geometry": { "type": "Point", "coordinates": [14.6028, 40.6333] },
      "properties": { "name": "Amalfi Coast", "country": "Italy", "iso": "IT", "source": "Sight", "category": "Natural", "score": 10, "why_notable": "Dramatic cliffside villages, Positano, Ravello, stunning Mediterranean scenery, UNESCO" }
    },
    {
      "type": "Feature",
      "geometry": { "type": "Point", "coordinates": [9.7292, 44.1069] },
      "properties": { "name": "Cinque Terre", "country": "Italy", "iso": "IT", "source": "Sight", "category": "Cultural", "score": 9, "why_notable": "Five colorful coastal villages, terraced vineyards, hiking trails, UNESCO" }
    },
    {
      "type": "Feature",
      "geometry": { "type": "Point", "coordinates": [12.1631, 46.6131] },
      "properties": { "name": "The Dolomites", "country": "Italy", "iso": "IT", "source": "Sight", "category": "Natural", "score": 9, "why_notable": "Spectacular mountain peaks, dramatic limestone spires, world-class skiing, UNESCO" }
    },
    {
      "type": "Feature",
      "geometry": { "type": "Point", "coordinates": [10.3964, 43.7231] },
      "properties": { "name": "Leaning Tower of Pisa", "country": "Italy", "iso": "IT", "source": "Sight", "category": "Cultural", "score": 9, "why_notable": "Iconic tilted bell tower, Piazza dei Miracoli, UNESCO" }
    },
    {
      "type": "Feature",
      "geometry": { "type": "Point", "coordinates": [11.3317, 43.3186] },
      "properties": { "name": "Siena", "country": "Italy", "iso": "IT", "source": "Sight", "category": "Cultural", "score": 9, "why_notable": "Medieval perfection, Piazza del Campo, Palio horse race, Gothic cathedral, UNESCO" }
    },
    {
      "type": "Feature",
      "geometry": { "type": "Point", "coordinates": [9.1705, 45.4659] },
      "properties": { "name": "Milan - Duomo & Last Supper", "country": "Italy", "iso": "IT", "source": "Sight", "category": "Cultural", "score": 8, "why_notable": "Gothic cathedral, Da Vinci's Last Supper, La Scala opera, fashion capital, UNESCO" }
    },
    {
      "type": "Feature",
      "geometry": { "type": "Point", "coordinates": [10.9944, 45.4386] },
      "properties": { "name": "Verona", "country": "Italy", "iso": "IT", "source": "Sight", "category": "Cultural", "score": 8, "why_notable": "Romeo & Juliet city, Roman arena, opera festival, UNESCO" }
    },
    {
      "type": "Feature",
      "geometry": { "type": "Point", "coordinates": [11.0417, 43.4681] },
      "properties": { "name": "San Gimignano", "country": "Italy", "iso": "IT", "source": "Sight", "category": "Cultural", "score": 8, "why_notable": "Medieval Manhattan, 14 stone towers, Tuscan hilltop icon, UNESCO" }
    },
    {
      "type": "Feature",
      "geometry": { "type": "Point", "coordinates": [16.6103, 40.6664] },
      "properties": { "name": "Matera - Sassi", "country": "Italy", "iso": "IT", "source": "Sight", "category": "Cultural", "score": 8, "why_notable": "Ancient cave dwellings, 9000-year-old city, rupestrian churches, UNESCO" }
    },
    {
      "type": "Feature",
      "geometry": { "type": "Point", "coordinates": [12.6224, 43.0662] },
      "properties": { "name": "Assisi", "country": "Italy", "iso": "IT", "source": "Sight", "category": "Cultural", "score": 8, "why_notable": "St. Francis birthplace, Giotto frescoes, medieval pilgrimage town, UNESCO" }
    },
    {
      "type": "Feature",
      "geometry": { "type": "Point", "coordinates": [14.9967, 37.7561] },
      "properties": { "name": "Mount Etna", "country": "Italy", "iso": "IT", "source": "Sight", "category": "Natural", "score": 8, "why_notable": "Europe's largest active volcano, lunar landscapes, UNESCO" }
    },
    {
      "type": "Feature",
      "geometry": { "type": "Point", "coordinates": [12.1963, 44.4204] },
      "properties": { "name": "Ravenna Mosaics", "country": "Italy", "iso": "IT", "source": "Sight", "category": "Cultural", "score": 8, "why_notable": "Finest Byzantine mosaics outside Istanbul, early Christian monuments, UNESCO" }
    },
    {
      "type": "Feature",
      "geometry": { "type": "Point", "coordinates": [10.9217, 44.6488] },
      "properties": { "name": "Osteria Francescana", "city": "Modena", "country": "Italy", "iso": "IT", "source": "Michelin", "category": "Restaurant", "stars": 3, "chef": "Massimo Bottura" }
    },
    {
      "type": "Feature",
      "geometry": { "type": "Point", "coordinates": [8.0357, 44.7003] },
      "properties": { "name": "Piazza Duomo", "city": "Alba", "country": "Italy", "iso": "IT", "source": "Michelin", "category": "Restaurant", "stars": 3, "chef": "Enrico Crippa" }
    },
    {
      "type": "Feature",
      "geometry": { "type": "Point", "coordinates": [11.7894, 45.4292] },
      "properties": { "name": "Le Calandre", "city": "Rubano", "country": "Italy", "iso": "IT", "source": "Michelin", "category": "Restaurant", "stars": 3, "chef": "Massimiliano Alajmo" }
    },
    {
      "type": "Feature",
      "geometry": { "type": "Point", "coordinates": [9.775, 45.6689] },
      "properties": { "name": "Da Vittorio", "city": "Brusaporto", "country": "Italy", "iso": "IT", "source": "Michelin", "category": "Restaurant", "stars": 3, "chef": "Cerea Brothers" }
    },
    {
      "type": "Feature",
      "geometry": { "type": "Point", "coordinates": [13.2164, 43.7179] },
      "properties": { "name": "Uliassi", "city": "Senigallia", "country": "Italy", "iso": "IT", "source": "Michelin", "category": "Restaurant", "stars": 3, "chef": "Mauro Uliassi" }
    },
    {
      "type": "Feature",
      "geometry": { "type": "Point", "coordinates": [9.1655, 45.4501] },
      "properties": { "name": "Enrico Bartolini al Mudec", "city": "Milan", "country": "Italy", "iso": "IT", "source": "Michelin", "category": "Restaurant", "stars": 3, "chef": "Enrico Bartolini" }
    },
    {
      "type": "Feature",
      "geometry": { "type": "Point", "coordinates": [14.1, 41.7833] },
      "properties": { "name": "Reale", "city": "Castel di Sangro", "country": "Italy", "iso": "IT", "source": "Michelin", "category": "Restaurant", "stars": 3, "chef": "Niko Romito" }
    },
    {
      "type": "Feature",
      "geometry": { "type": "Point", "coordinates": [10.3769, 45.1528] },
      "properties": { "name": "Dal Pescatore", "city": "Canneto sull'Oglio", "country": "Italy", "iso": "IT", "source": "Michelin", "category": "Restaurant", "stars": 3 }
    },
    {
      "type": "Feature",
      "geometry": { "type": "Point", "coordinates": [11.9189, 46.5739] },
      "properties": { "name": "St. Hubertus", "city": "San Cassiano", "country": "Italy", "iso": "IT", "source": "Michelin", "category": "Restaurant", "stars": 3 }
    },
    {
      "type": "Feature",
      "geometry": { "type": "Point", "coordinates": [12.4547, 41.932] },
      "properties": { "name": "La Pergola", "city": "Rome", "country": "Italy", "iso": "IT", "source": "Michelin", "category": "Restaurant", "stars": 3 }
    },
    {
      "type": "Feature",
      "geometry": { "type": "Point", "coordinates": [14.2633, 40.8506] },
      "properties": { "name": "Pizzeria Da Michele", "city": "Naples", "country": "Italy", "iso": "IT", "source": "LocalEatery", "category": "Restaurant", "why_notable": "Only 2 pizzas since 1870, Eat Pray Love fame" }
    },
    {
      "type": "Feature",
      "geometry": { "type": "Point", "coordinates": [14.2589, 40.8508] },
      "properties": { "name": "Sorbillo", "city": "Naples", "country": "Italy", "iso": "IT", "source": "LocalEatery", "category": "Restaurant", "why_notable": "Legendary Neapolitan pizza dynasty" }
    },
    {
      "type": "Feature",
      "geometry": { "type": "Point", "coordinates": [12.4753, 41.89] },
      "properties": { "name": "Da Enzo al 29", "city": "Rome", "country": "Italy", "iso": "IT", "source": "LocalEatery", "category": "Restaurant", "why_notable": "Best cacio e pepe and carbonara in Trastevere" }
    },
    {
      "type": "Feature",
      "geometry": { "type": "Point", "coordinates": [12.4486, 41.9072] },
      "properties": { "name": "Pizzarium", "city": "Rome", "country": "Italy", "iso": "IT", "source": "LocalEatery", "category": "Restaurant", "why_notable": "Bonci's famous pizza al taglio" }
    },
    {
      "type": "Feature",
      "geometry": { "type": "Point", "coordinates": [11.2558, 43.7689] },
      "properties": { "name": "All'Antico Vinaio", "city": "Florence", "country": "Italy", "iso": "IT", "source": "LocalEatery", "category": "Restaurant", "why_notable": "World's best schiacciata sandwiches" }
    },
    {
      "type": "Feature",
      "geometry": { "type": "Point", "coordinates": [11.2536, 43.7756] },
      "properties": { "name": "Trattoria Mario", "city": "Florence", "country": "Italy", "iso": "IT", "source": "LocalEatery", "category": "Restaurant", "why_notable": "Florentine lunch institution since 1953" }
    },
    {
      "type": "Feature",
      "geometry": { "type": "Point", "coordinates": [9.2167, 45.9833] },
      "properties": { "name": "Grand Hotel Tremezzo", "city": "Lake Como", "country": "Italy", "iso": "IT", "source": "Hotel", "category": "Accommodation", "why_notable": "Art Nouveau palace on Lake Como" }
    },
    {
      "type": "Feature",
      "geometry": { "type": "Point", "coordinates": [12.3422, 45.4268] },
      "properties": { "name": "Belmond Hotel Cipriani", "city": "Venice", "country": "Italy", "iso": "IT", "source": "Hotel", "category": "Accommodation", "why_notable": "Private island escape in Venice lagoon" }
    }
  ]
}
