{
  "type": "FeatureCollection",
  "features": [
    {
      "type": "Feature",
      "geometry": { "type": "Point", "coordinates": [35.0063, 29.5267] },
      "properties": { "name": "Aqaba", "country": "Jordan", "iso": "JO", "source": "Route", "category": "Stop", "trip": 21, "nights": "" }
    },
    {
      "type": "Feature",
      "geometry": { "type": "Point", "coordinates": [35.4444, 30.3285] },
      "properties": { "name": "Petra", "country": "Jordan", "iso": "JO", "source": "Route", "category": "Stop", "trip": 21, "nights": "" }
    },
    {
      "type": "Feature",
      "geometry": { "type": "Point", "coordinates": [35.4241, 29.5722] },
      "properties": { "name": "Wadi Rum", "country": "Jordan", "iso": "JO", "source": "Route", "category": "Stop", "trip": 21, "nights": "" }
    },
    {
      "type": "Feature",
      "geometry": { "type": "Point", "coordinates": [35.55, 31.5] },
      "properties": { "name": "Dead Sea", "country": "Jordan", "iso": "JO", "source": "Route", "category": "Stop", "trip": 21, "nights": "" }
    },
    {
      "type": "Feature",
      "geometry": { "type": "Point", "coordinates": [35.9106, 31.9454] },
      "properties": { "name": "Amman", "country": "Jordan", "iso": "JO", "source": "Route", "category": "Stop", "trip": 21, "nights": "" }
    },
    {
      "type": "Feature",
      "geometry": { "type": "Point", "coordinates": [35.4433, 30.3306] },
      "properties": { "name": "Petra", "country": "Jordan", "iso": "JO", "source": "Sight", "category": "Cultural", "score": 10, "why_notable": "Rose-red city carved into rock, Treasury, New Seven Wonders of the World, UNESCO" }
    },
    {
      "type": "Feature",
      "geometry": { "type": "Point", "coordinates": [35.4339, 29.6397] },
      "properties": { "name": "Wadi Rum", "country": "Jordan", "iso": "JO", "source": "Sight", "category": "Natural", "score": 9, "why_notable": "Mars-like desert landscape, Lawrence of Arabia, Bedouin camps, UNESCO" }
    },
    {
      "type": "Feature",
      "geometry": { "type": "Point", "coordinates": [35.55, 31.5] },
      "properties": { "name": "Dead Sea", "country": "Jordan", "iso": "JO", "source": "Sight", "category": "Natural", "score": 8, "why_notable": "Lowest point on Earth, unique floating experience, mineral-rich waters" }
    },
    {
      "type": "Feature",
      "geometry": { "type": "Point", "coordinates": [35.8961, 32.2746] },
      "properties": { "name": "Jerash", "country": "Jordan", "iso": "JO", "source": "Sight", "category": "Cultural", "score": 8, "why_notable": "Best-preserved Roman provincial city, colonnaded streets, oval plaza" }
    },
    {
      "type": "Feature",
      "geometry": { "type": "Point", "coordinates": [35.9303, 31.9522] },
      "properties": { "name": "Hashem", "city": "Amman", "country": "Jordan", "iso": "JO", "source": "LocalEatery", "category": "Restaurant", "why_notable": "Best falafel in Jordan, open 24 hours since 1952" }
    }
  ]
}
