{
  "type": "FeatureCollection",
  "features": [
    {
      "type": "Feature",
      "geometry": { "type": "Point", "coordinates": [4.9041, 52.3676] },
      "properties": { "name": "Amsterdam", "country": "Netherlands", "iso": "NL", "source": "Route", "category": "Stop", "trip": 13, "nights": "" }
    },
    {
      "type": "Feature",
      "geometry": { "type": "Point", "coordinates": [4.8878, 52.365] },
      "properties": { "name": "Amsterdam - Canals, Van Gogh & Rijksmuseum", "country": "Netherlands", "iso": "NL", "source": "Sight", "category": "Cultural", "score": 9, "why_notable": "17th-century canal ring, Van Gogh, Rembrandt, Anne Frank House, UNESCO" }
    },
    {
      "type": "Feature",
      "geometry": { "type": "Point", "coordinates": [4.6494, 51.8825] },
      "properties": { "name": "Kinderdijk Windmills", "country": "Netherlands", "iso": "NL", "source": "Sight", "category": "Cultural", "score": 8, "why_notable": "19 historic windmills, iconic Dutch landscape, UNESCO" }
    },
    {
      "type": "Feature",
      "geometry": { "type": "Point", "coordinates": [4.548, 52.27] },
      "properties": { "name": "Keukenhof Gardens", "country": "Netherlands", "iso": "NL", "source": "Sight", "category": "Natural", "score": 8, "why_notable": "World's largest flower garden, 7 million tulips, spring spectacle" }
    },
    {
      "type": "Feature",
      "geometry": { "type": "Point", "coordinates": [6.0942, 52.5089] },
      "properties": { "name": "De Librije", "city": "Zwolle", "country": "Netherlands", "iso": "NL", "source": "Michelin", "category": "Restaurant", "stars": 3, "chef": "Jonnie Boer" }
    },
    {
      "type": "Feature",
      "geometry": { "type": "Point", "coordinates": [4.0375, 51.4456] },
      "properties": { "name": "Inter Scaldes", "city": "Kruiningen", "country": "Netherlands", "iso": "NL", "source": "Michelin", "category": "Restaurant", "stars": 3 }
    }
  ]
}
