{
  "type": "FeatureCollection",
  "features": [
    {
      "type": "Feature",
      "geometry": { "type": "Point", "coordinates": [85.324, 27.7172] },
      "properties": { "name": "Kathmandu", "country": "Nepal", "iso": "NP", "source": "Route", "category": "Stop", "trip": 2, "nights": "" }
    },
    {
      "type": "Feature",
      "geometry": { "type": "Point", "coordinates": [83.9856, 28.2096] },
      "properties": { "name": "Pokhara", "country": "Nepal", "iso": "NP", "source": "Route", "category": "Stop", "trip": 2, "nights": "" }
    },
    {
      "type": "Feature",
      "geometry": { "type": "Point", "coordinates": [86.925, 27.9881] },
      "properties": { "name": "Mount Everest (Sagarmatha)", "country": "Nepal", "iso": "NP", "source": "Sight", "category": "Natural", "score": 10, "why_notable": "World's highest peak, roof of the world, base camp trek, UNESCO" }
    },
    {
      "type": "Feature",
      "geometry": { "type": "Point", "coordinates": [85.3085, 27.704] },
      "properties": { "name": "Kathmandu Valley", "country": "Nepal", "iso": "NP", "source": "Sight", "category": "Cultural", "score": 9, "why_notable": "Durbar Squares, Boudhanath, Swayambhunath, Pashupatinath, UNESCO" }
    },
    {
      "type": "Feature",
      "geometry": { "type": "Point", "coordinates": [84.0, 28.5] },
      "properties": { "name": "Annapurna Circuit", "country": "Nepal", "iso": "NP", "source": "Sight", "category": "Natural", "score": 8, "why_notable": "World's best trekking circuit, Thorong La pass, diverse landscapes" }
    },
    {
      "type": "Feature",
      "geometry": { "type": "Point", "coordinates": [84.3333, 27.5] },
      "properties": { "name": "Chitwan National Park", "country": "Nepal", "iso": "NP", "source": "Sight", "category": "Natural", "score": 8, "why_notable": "One-horned rhinos, Bengal tigers, jungle safari, UNESCO" }
    },
    {
      "type": "Feature",
      "geometry": { "type": "Point", "coordinates": [83.2761, 27.4689] },
      "properties": { "name": "Lumbini", "country": "Nepal", "iso": "NP", "source": "Sight", "category": "Cultural", "score": 8, "why_notable": "Birthplace of Buddha, sacred pilgrimage site, UNESCO" }
    }
  ]
}
