{
  "type": "FeatureCollection",
  "features": [
    {
      "type": "Feature",
      "geometry": {
        "type": "Point",
        "coordinates": [
          174.7633,
          -36.8485
        ]
      },
      "properties": {
        "name": "Auckland",
        "country": "New Zealand",
        "iso": "NZ",
        "source": "Route",
        "category": "Stop",
        "trip": 5,
        "nights": ""
      }
    },
    {
      "type": "Feature",
      "geometry": {
        "type": "Point",
        "coordinates": [
          176.2497,
          -38.1368
        ]
      },
      "properties": {
        "name": "Rotorua",
        "country": "New Zealand",
        "iso": "NZ",
        "source": "Route",
        "category": "Stop",
        "trip": 5,
        "nights": ""
      }
    },
    {
      "type": "Feature",
      "geometry": {
        "type": "Point",
        "coordinates": [
          176.912,
          -39.4928
        ]
      },
      "properties": {
        "name": "Napier",
        "country": "New Zealand",
        "iso": "NZ",
        "source": "Route",
        "category": "Stop",
        "trip": 5,
        "nights": ""
      }
    },
    {
      "type": "Feature",
      "geometry": {
        "type": "Point",
        "coordinates": [
          174.7762,
          -41.2865
        ]
      },
      "properties": {
        "name": "Wellington",
        "country": "New Zealand",
        "iso": "NZ",
        "source": "Route",
        "category": "Stop",
        "trip": 5,
        "nights": ""
      }
    },
    {
      "type": "Feature",
      "geometry": {
        "type": "Point",
        "coordinates": [
          174.001,
          -41.2906
        ]
      },
      "properties": {
        "name": "Picton",
        "country": "New Zealand",
        "iso": "NZ",
        "source": "Route",
        "category": "Stop",
        "trip": 5,
        "nights": ""
      }
    },
    {
      "type": "Feature",
      "geometry": {
        "type": "Point",
        "coordinates": [
          172.6362,
          -43.5321
        ]
      },
      "properties": {
        "name": "Christchurch",
        "country": "New Zealand",
        "iso": "NZ",
        "source": "Route",
        "category": "Stop",
        "trip": 5,
        "nights": ""
      }
    },
    {
      "type": "Feature",
      "geometry": {
        "type": "Point",
        "coordinates": [
          170.0962,
          -43.734
        ]
      },
      "properties": {
        "name": "Mt Cook",
        "country": "New Zealand",
        "iso": "NZ",
        "source": "Route",
        "category": "Stop",
        "trip": 5,
        "nights": ""
      }
    },
    {
      "type": "Feature",
      "geometry": {
        "type": "Point",
        "coordinates": [
          168.6626,
          -45.0312
        ]
      },
      "properties": {
        "name": "Queenstown",
        "country": "New Zealand",
        "iso": "NZ",
        "source": "Route",
        "category": "Stop",
        "trip": 5,
        "nights": ""
      }
    },
    {
      "type": "Feature",
      "geometry": {
        "type": "Point",
        "coordinates": [
          167.9256,
          -44.6414
        ]
      },
      "properties": {
        "name": "Milford Sound",
        "country": "New Zealand",
        "iso": "NZ",
        "source": "Route",
        "category": "Stop",
        "trip": 5,
        "nights": ""
      }
    },
    {
      "type": "Feature",
      "geometry": {
        "type": "Point",
        "coordinates": [
          169.132,
          -44.7032
        ]
      },
      "properties": {
        "name": "Wanaka",
        "country": "New Zealand",
        "iso": "NZ",
        "source": "Route",
        "category": "Stop",
        "trip": 5,
        "nights": ""
      }
    },
    {
      "type": "Feature",
      "geometry": {
        "type": "Point",
        "coordinates": [
          167.9256,
          -44.67
        ]
      },
      "properties": {
        "name": "Milford Sound & Fiordland",
        "country": "New Zealand",
        "iso": "NZ",
        "source": "Sight",
        "category": "Natural",
        "score": 10,
        "why_notable": "World's finest scenery, steep fjords, waterfalls, rainforest, UNESCO"
      }
    },
    {
      "type": "Feature",
      "geometry": {
        "type": "Point",
        "coordinates": [
          168.66,
          -45.03
        ]
      },
      "properties": {
        "name": "Queenstown & Southern Alps",
        "country": "New Zealand",
        "iso": "NZ",
        "source": "Sight",
        "category": "Natural",
        "score": 9,
        "why_notable": "Adventure capital, Lord of the Rings scenery, bungee, skiing"
      }
    },
    {
      "type": "Feature",
      "geometry": {
        "type": "Point",
        "coordinates": [
          176.25,
          -38.14
        ]
      },
      "properties": {
        "name": "Rotorua Geothermal Area",
        "country": "New Zealand",
        "iso": "NZ",
        "source": "Sight",
        "category": "Natural",
        "score": 8,
        "why_notable": "Geysers, bubbling mud, Maori culture, Te Puia"
      }
    },
    {
      "type": "Feature",
      "geometry": {
        "type": "Point",
        "coordinates": [
          175.5622,
          -39.2908
        ]
      },
      "properties": {
        "name": "Tongariro National Park",
        "country": "New Zealand",
        "iso": "NZ",
        "source": "Sight",
        "category": "Natural",
        "score": 8,
        "why_notable": "Volcanic alpine crossing, Mount Doom, sacred Maori mountains, UNESCO"
      }
    },
    {
      "type": "Feature",
      "geometry": {
        "type": "Point",
        "coordinates": [
          173,
          -40.9
        ]
      },
      "properties": {
        "name": "Abel Tasman National Park",
        "country": "New Zealand",
        "iso": "NZ",
        "source": "Sight",
        "category": "Natural",
        "score": 8,
        "why_notable": "Golden beaches, coastal kayaking, turquoise waters"
      }
    },
    {
      "type": "Feature",
      "geometry": {
        "type": "Point",
        "coordinates": [
          175.1,
          -38.26
        ]
      },
      "properties": {
        "name": "Waitomo Glowworm Caves",
        "country": "New Zealand",
        "iso": "NZ",
        "source": "Sight",
        "category": "Natural",
        "score": 8,
        "why_notable": "Magical glowworm grottos, black water rafting"
      }
    },
    {
      "type": "Feature",
      "geometry": {
        "type": "Point",
        "coordinates": [
          170.141,
          -43.595
        ]
      },
      "properties": {
        "name": "Aoraki / Mount Cook",
        "country": "New Zealand",
        "iso": "NZ",
        "source": "Sight",
        "category": "Natural",
        "score": 9,
        "why_notable": "New Zealand's highest peak, stunning glacial valleys, stargazing reserve"
      }
    },
    {
      "type": "Feature",
      "geometry": {
        "type": "Point",
        "coordinates": [
          170.18,
          -43.46
        ]
      },
      "properties": {
        "name": "Franz Josef & Fox Glaciers",
        "country": "New Zealand",
        "iso": "NZ",
        "source": "Sight",
        "category": "Natural",
        "score": 9,
        "why_notable": "Rainforest glaciers descending to sea level, helicopter tours, ice hiking"
      }
    },
    {
      "type": "Feature",
      "geometry": {
        "type": "Point",
        "coordinates": [
          173.68,
          -42.42
        ]
      },
      "properties": {
        "name": "Kaikoura",
        "country": "New Zealand",
        "iso": "NZ",
        "source": "Sight",
        "category": "Natural",
        "score": 9,
        "why_notable": "Whale watching, dolphins, seals, mountains meeting sea"
      }
    },
    {
      "type": "Feature",
      "geometry": {
        "type": "Point",
        "coordinates": [
          167.73,
          -45.42
        ]
      },
      "properties": {
        "name": "Doubtful Sound",
        "country": "New Zealand",
        "iso": "NZ",
        "source": "Sight",
        "category": "Natural",
        "score": 9,
        "why_notable": "Remote wilderness fiord, deeper and quieter than Milford, dolphins"
      }
    },
    {
      "type": "Feature",
      "geometry": {
        "type": "Point",
        "coordinates": [
          175.82,
          -36.77
        ]
      },
      "properties": {
        "name": "Coromandel Peninsula",
        "country": "New Zealand",
        "iso": "NZ",
        "source": "Sight",
        "category": "Natural",
        "score": 8,
        "why_notable": "Cathedral Cove, Hot Water Beach, pristine beaches"
      }
    },
    {
      "type": "Feature",
      "geometry": {
        "type": "Point",
        "coordinates": [
          175.68,
          -37.86
        ]
      },
      "properties": {
        "name": "Hobbiton",
        "country": "New Zealand",
        "iso": "NZ",
        "source": "Sight",
        "category": "Cultural",
        "score": 8,
        "why_notable": "Original Lord of the Rings film set, Shire brought to life"
      }
    },
    {
      "type": "Feature",
      "geometry": {
        "type": "Point",
        "coordinates": [
          169.13,
          -44.7
        ]
      },
      "properties": {
        "name": "Wanaka & That Wanaka Tree",
        "country": "New Zealand",
        "iso": "NZ",
        "source": "Sight",
        "category": "Natural",
        "score": 8,
        "why_notable": "Iconic lone tree in lake, Roy's Peak, Roys Peak Track"
      }
    },
    {
      "type": "Feature",
      "geometry": {
        "type": "Point",
        "coordinates": [
          170.48,
          -44
        ]
      },
      "properties": {
        "name": "Lake Tekapo",
        "country": "New Zealand",
        "iso": "NZ",
        "source": "Sight",
        "category": "Natural",
        "score": 8,
        "why_notable": "Turquoise glacier-fed lake, Church of the Good Shepherd, Dark Sky Reserve"
      }
    },
    {
      "type": "Feature",
      "geometry": {
        "type": "Point",
        "coordinates": [
          168.6626,
          -45.0311
        ]
      },
      "properties": {
        "name": "Fergburger",
        "city": "Queenstown",
        "country": "New Zealand",
        "iso": "NZ",
        "source": "LocalEatery",
        "category": "Restaurant",
        "why_notable": "New Zealand's most famous burger"
      }
    },
    {
      "type": "Feature",
      "geometry": {
        "type": "Point",
        "coordinates": [
          176.0847,
          -38.6428
        ]
      },
      "properties": {
        "name": "Huka Lodge",
        "city": "Taupo",
        "country": "New Zealand",
        "iso": "NZ",
        "source": "Hotel",
        "category": "Accommodation",
        "why_notable": "Fly-fishing lodge, Queen Elizabeth II stayed"
      }
    },
    {
      "type": "Feature",
      "geometry": {
        "type": "Point",
        "coordinates": [
          168.5333,
          -45.0167
        ]
      },
      "properties": {
        "name": "Blanket Bay",
        "city": "Queenstown",
        "country": "New Zealand",
        "iso": "NZ",
        "source": "Hotel",
        "category": "Accommodation",
        "why_notable": "Lake Wakatipu luxury lodge"
      }
    }
  ]
}
