{
  "type": "FeatureCollection",
  "features": [
    {
      "type": "Feature",
      "geometry": { "type": "Point", "coordinates": [67.0011, 30.1798] },
      "properties": { "name": "Quetta", "country": "Pakistan", "iso": "PK", "source": "Route", "category": "Stop", "trip": 1, "nights": "" }
    },
    {
      "type": "Feature",
      "geometry": { "type": "Point", "coordinates": [74.3587, 31.5204] },
      "properties": { "name": "Lahore", "country": "Pakistan", "iso": "PK", "source": "Route", "category": "Stop", "trip": 1, "nights": "" }
    },
    {
      "type": "Feature",
      "geometry": { "type": "Point", "coordinates": [73.0479, 33.6844] },
      "properties": { "name": "Islamabad", "country": "Pakistan", "iso": "PK", "source": "Route", "category": "Stop", "trip": 1, "nights": "" }
    },
    {
      "type": "Feature",
      "geometry": { "type": "Point", "coordinates": [74.6597, 36.3167] },
      "properties": { "name": "Hunza", "country": "Pakistan", "iso": "PK", "source": "Route", "category": "Stop", "trip": 1, "nights": "" }
    },
    {
      "type": "Feature",
      "geometry": { "type": "Point", "coordinates": [74.5, 36.3] },
      "properties": { "name": "Hunza Valley & Karakoram Highway", "country": "Pakistan", "iso": "PK", "source": "Sight", "category": "Natural", "score": 9, "why_notable": "World's most spectacular mountain road, 7000m peaks, Rakaposhi views" }
    },
    {
      "type": "Feature",
      "geometry": { "type": "Point", "coordinates": [74.3097, 31.5903] },
      "properties": { "name": "Lahore - Mughal Heritage", "country": "Pakistan", "iso": "PK", "source": "Sight", "category": "Cultural", "score": 8, "why_notable": "Lahore Fort, Shalimar Gardens, Badshahi Mosque, UNESCO" }
    },
    {
      "type": "Feature",
      "geometry": { "type": "Point", "coordinates": [68.1389, 27.3292] },
      "properties": { "name": "Mohenjo-Daro", "country": "Pakistan", "iso": "PK", "source": "Sight", "category": "Cultural", "score": 8, "why_notable": "Ancient Indus Valley civilization, 4,500 years old, UNESCO" }
    },
    {
      "type": "Feature",
      "geometry": { "type": "Point", "coordinates": [72.8875, 33.7792] },
      "properties": { "name": "Taxila", "country": "Pakistan", "iso": "PK", "source": "Sight", "category": "Cultural", "score": 8, "why_notable": "Gandhara Buddhist ruins, ancient learning center, UNESCO" }
    }
  ]
}
