{
  "type": "FeatureCollection",
  "features": [
    {
      "type": "Feature",
      "geometry": { "type": "Point", "coordinates": [100.88, 13.08] },
      "properties": { "name": "Laem Chabang", "country": "Thailand", "iso": "TH", "source": "Route", "category": "Stop", "trip": 3, "nights": "" }
    },
    {
      "type": "Feature",
      "geometry": { "type": "Point", "coordinates": [100.5018, 13.7563] },
      "properties": { "name": "Bangkok", "country": "Thailand", "iso": "TH", "source": "Route", "category": "Stop", "trip": 3, "nights": "" }
    },
    {
      "type": "Feature",
      "geometry": { "type": "Point", "coordinates": [98.9853, 18.7883] },
      "properties": { "name": "Chiang Mai", "country": "Thailand", "iso": "TH", "source": "Route", "category": "Stop", "trip": 3, "nights": "" }
    },
    {
      "type": "Feature",
      "geometry": { "type": "Point", "coordinates": [100.491, 13.751] },
      "properties": { "name": "Bangkok Grand Palace & Wat Pho", "country": "Thailand", "iso": "TH", "source": "Sight", "category": "Cultural", "score": 10, "why_notable": "Royal palace complex, Emerald Buddha, giant reclining Buddha, Thai architecture at its finest" }
    },
    {
      "type": "Feature",
      "geometry": { "type": "Point", "coordinates": [100.56056, 14.34778] },
      "properties": { "name": "Ayutthaya", "country": "Thailand", "iso": "TH", "source": "Sight", "category": "Cultural", "score": 9, "why_notable": "Ancient Siamese capital, stunning temple ruins, Buddha head in tree roots, UNESCO" }
    },
    {
      "type": "Feature",
      "geometry": { "type": "Point", "coordinates": [98.77, 7.74] },
      "properties": { "name": "Thai Islands - Phi Phi & Phuket", "country": "Thailand", "iso": "TH", "source": "Sight", "category": "Natural", "score": 9, "why_notable": "Iconic limestone cliffs, The Beach filming location, tropical paradise" }
    },
    {
      "type": "Feature",
      "geometry": { "type": "Point", "coordinates": [99.78972, 17.00722] },
      "properties": { "name": "Sukhothai", "country": "Thailand", "iso": "TH", "source": "Sight", "category": "Cultural", "score": 8, "why_notable": "First Thai kingdom capital, beautiful Buddha statues, cycling through ruins, UNESCO" }
    },
    {
      "type": "Feature",
      "geometry": { "type": "Point", "coordinates": [98.5, 8.27] },
      "properties": { "name": "Phang Nga Bay", "country": "Thailand", "iso": "TH", "source": "Sight", "category": "Natural", "score": 8, "why_notable": "James Bond Island, limestone karsts rising from emerald water" }
    },
    {
      "type": "Feature",
      "geometry": { "type": "Point", "coordinates": [98.9217, 18.8049] },
      "properties": { "name": "Chiang Mai - Doi Suthep & Old City", "country": "Thailand", "iso": "TH", "source": "Sight", "category": "Cultural", "score": 8, "why_notable": "Golden temple on the mountain, 300 temples, northern Thai culture" }
    },
    {
      "type": "Feature",
      "geometry": { "type": "Point", "coordinates": [100.5385, 13.7286] },
      "properties": { "name": "Gaggan Anand", "city": "Bangkok", "country": "Thailand", "iso": "TH", "source": "Michelin", "category": "Restaurant", "stars": 3, "chef": "Gaggan Anand" }
    },
    {
      "type": "Feature",
      "geometry": { "type": "Point", "coordinates": [100.5144, 13.7234] },
      "properties": { "name": "Le Normandie", "city": "Bangkok", "country": "Thailand", "iso": "TH", "source": "Michelin", "category": "Restaurant", "stars": 3, "chef": "Arnaud Dunand-Sauthier" }
    },
    {
      "type": "Feature",
      "geometry": { "type": "Point", "coordinates": [100.5018, 13.7535] },
      "properties": { "name": "Jay Fai", "city": "Bangkok", "country": "Thailand", "iso": "TH", "source": "LocalEatery", "category": "Restaurant", "type": "Street Food", "why_notable": "Michelin-starred street food, legendary crab omelette" }
    },
    {
      "type": "Feature",
      "geometry": { "type": "Point", "coordinates": [100.5036, 13.7517] },
      "properties": { "name": "Thip Samai", "city": "Bangkok", "country": "Thailand", "iso": "TH", "source": "LocalEatery", "category": "Restaurant", "type": "Street Food", "why_notable": "Best Pad Thai in Bangkok since 1966" }
    },
    {
      "type": "Feature",
      "geometry": { "type": "Point", "coordinates": [100.51, 13.739] },
      "properties": { "name": "Yaowarat (Chinatown)", "city": "Bangkok", "country": "Thailand", "iso": "TH", "source": "LocalEatery", "category": "Restaurant", "type": "Street Food", "why_notable": "Best street food in Bangkok after dark" }
    },
    {
      "type": "Feature",
      "geometry": { "type": "Point", "coordinates": [100.5508, 13.7999] },
      "properties": { "name": "Chatuchak Weekend Market", "city": "Bangkok", "country": "Thailand", "iso": "TH", "source": "LocalEatery", "category": "Restaurant", "type": "Market", "why_notable": "World's largest weekend market, endless street food" }
    },
    {
      "type": "Feature",
      "geometry": { "type": "Point", "coordinates": [98.28, 7.9765] },
      "properties": { "name": "Amanpuri", "city": "Phuket", "country": "Thailand", "iso": "TH", "source": "Hotel", "category": "Accommodation", "why_notable": "First Aman resort, set the ultra-luxury standard" }
    },
    {
      "type": "Feature",
      "geometry": { "type": "Point", "coordinates": [100.5144, 13.7234] },
      "properties": { "name": "Mandarin Oriental Bangkok", "city": "Bangkok", "country": "Thailand", "iso": "TH", "source": "Hotel", "category": "Accommodation", "why_notable": "Authors' Wing, legendary river setting" }
    }
  ]
}
