{
  "type": "FeatureCollection",
  "features": [
    {
      "type": "Feature",
      "geometry": { "type": "Point", "coordinates": [25.8572, -17.9243] },
      "properties": { "name": "Victoria Falls", "country": "Zimbabwe", "iso": "ZW", "source": "Route", "category": "Stop", "trip": 19, "nights": "" }
    },
    {
      "type": "Feature",
      "geometry": { "type": "Point", "coordinates": [25.857, -17.924] },
      "properties": { "name": "Victoria Falls (Zimbabwe side)", "country": "Zimbabwe", "iso": "ZW", "source": "Sight", "category": "Natural", "score": 10, "why_notable": "Main Falls view, Devil's Pool, bungee from bridge, UNESCO" }
    },
    {
      "type": "Feature",
      "geometry": { "type": "Point", "coordinates": [30.933, -20.283] },
      "properties": { "name": "Great Zimbabwe", "country": "Zimbabwe", "iso": "ZW", "source": "Sight", "category": "Cultural", "score": 9, "why_notable": "Africa's largest ancient stone ruins, medieval Shona civilization, UNESCO" }
    },
    {
      "type": "Feature",
      "geometry": { "type": "Point", "coordinates": [29.408, -15.819] },
      "properties": { "name": "Mana Pools", "country": "Zimbabwe", "iso": "ZW", "source": "Sight", "category": "Natural", "score": 8, "why_notable": "Walking safaris among elephants, Zambezi floodplain, UNESCO" }
    },
    {
      "type": "Feature",
      "geometry": { "type": "Point", "coordinates": [28.5, -20.5] },
      "properties": { "name": "Matobo Hills", "country": "Zimbabwe", "iso": "ZW", "source": "Sight", "category": "Natural", "score": 8, "why_notable": "Balancing rocks, San rock art, black rhino tracking, UNESCO" }
    },
    {
      "type": "Feature",
      "geometry": { "type": "Point", "coordinates": [26.5, -18.5] },
      "properties": { "name": "Hwange National Park", "country": "Zimbabwe", "iso": "ZW", "source": "Sight", "category": "Natural", "score": 8, "why_notable": "Zimbabwe's largest park, huge elephant herds, excellent game" }
    },
    {
      "type": "Feature",
      "geometry": { "type": "Point", "coordinates": [25.8425, -17.9287] },
      "properties": { "name": "Victoria Falls Hotel", "city": "Victoria Falls", "country": "Zimbabwe", "iso": "ZW", "source": "Hotel", "category": "Accommodation", "why_notable": "Edwardian elegance overlooking the Falls bridge" }
    }
  ]
}
