{
  "type": "FeatureCollection",
  "features": [
    {
      "type": "Feature",
      "properties": {
        "name": "Tatev Monastery",
        "country": "Armenia",
        "countryCode": "AM",
        "category": "landmark",
        "rating": 5,
        "description": "9th-century monastery on cliff edge, reached by world's longest reversible cable car"
      },
      "geometry": { "type": "Point", "coordinates": [46.2486, 39.3797] }
    },
    {
      "type": "Feature",
      "properties": {
        "name": "Geghard Monastery",
        "country": "Armenia",
        "countryCode": "AM",
        "category": "landmark",
        "rating": 5,
        "description": "UNESCO medieval monastery partially carved into mountain rock with exceptional acoustics"
      },
      "geometry": { "type": "Point", "coordinates": [44.8178, 40.1403] }
    },
    {
      "type": "Feature",
      "properties": {
        "name": "Lake Sevan",
        "country": "Armenia",
        "countryCode": "AM",
        "category": "natural",
        "rating": 4,
        "description": "One of world's largest high-altitude freshwater lakes at 1,900m with island monastery"
      },
      "geometry": { "type": "Point", "coordinates": [45.0167, 40.3500] }
    },
    {
      "type": "Feature",
      "properties": {
        "name": "Noravank Monastery",
        "country": "Armenia",
        "countryCode": "AM",
        "category": "landmark",
        "rating": 4,
        "description": "13th-century monastery in dramatic red rock gorge with intricate stone carvings"
      },
      "geometry": { "type": "Point", "coordinates": [45.2333, 39.6847] }
    },
    {
      "type": "Feature",
      "properties": {
        "name": "Garni Temple",
        "country": "Armenia",
        "countryCode": "AM",
        "category": "landmark",
        "rating": 4,
        "description": "Only standing Greco-Roman colonnaded temple in the former Soviet region"
      },
      "geometry": { "type": "Point", "coordinates": [44.7300, 40.1125] }
    }
  ]
}
