{
  "type": "FeatureCollection",
  "features": [
    {
      "type": "Feature",
      "properties": {
        "name": "Iguazu Falls (Argentina side)",
        "country": "Argentina",
        "countryCode": "AR",
        "category": "natural",
        "rating": 5,
        "description": "275 waterfalls including Devil's Throat with boat rides into the spray"
      },
      "geometry": { "type": "Point", "coordinates": [-54.4375, -25.6953] }
    },
    {
      "type": "Feature",
      "properties": {
        "name": "Perito Moreno Glacier",
        "country": "Argentina",
        "countryCode": "AR",
        "category": "natural",
        "rating": 5,
        "description": "Advancing glacier in Los Glaciares National Park with dramatic ice calving"
      },
      "geometry": { "type": "Point", "coordinates": [-73.0500, -50.4967] }
    },
    {
      "type": "Feature",
      "properties": {
        "name": "Mount Fitz Roy",
        "country": "Argentina",
        "countryCode": "AR",
        "category": "natural",
        "rating": 5,
        "description": "Iconic jagged granite peak, crown jewel of El Chalten hiking"
      },
      "geometry": { "type": "Point", "coordinates": [-73.0442, -49.2714] }
    },
    {
      "type": "Feature",
      "properties": {
        "name": "Laguna de los Tres",
        "country": "Argentina",
        "countryCode": "AR",
        "category": "viewpoint",
        "rating": 5,
        "description": "Stunning teal lake with Fitz Roy backdrop, Patagonia's most iconic view"
      },
      "geometry": { "type": "Point", "coordinates": [-73.0000, -49.2833] }
    },
    {
      "type": "Feature",
      "properties": {
        "name": "Ushuaia",
        "country": "Argentina",
        "countryCode": "AR",
        "category": "extreme",
        "rating": 4,
        "description": "Southernmost city in the world, gateway to Antarctica"
      },
      "geometry": { "type": "Point", "coordinates": [-68.3000, -54.8019] }
    },
    {
      "type": "Feature",
      "properties": {
        "name": "Ruta 40",
        "country": "Argentina",
        "countryCode": "AR",
        "category": "viewpoint",
        "rating": 4,
        "description": "Legendary 5,000km highway crossing 20 national parks and Patagonian steppe"
      },
      "geometry": { "type": "Point", "coordinates": [-70.3333, -40.8333] }
    },
    {
      "type": "Feature",
      "properties": {
        "name": "Seven Lakes Route",
        "country": "Argentina",
        "countryCode": "AR",
        "category": "viewpoint",
        "rating": 4,
        "description": "Scenic drive connecting Villa La Angostura to Bariloche through lake district"
      },
      "geometry": { "type": "Point", "coordinates": [-71.4000, -40.6333] }
    },
    {
      "type": "Feature",
      "properties": {
        "name": "El Chalten",
        "country": "Argentina",
        "countryCode": "AR",
        "category": "natural",
        "rating": 4,
        "description": "Hiking capital of Argentina with trailheads to Fitz Roy and Cerro Torre"
      },
      "geometry": { "type": "Point", "coordinates": [-72.8867, -49.3311] }
    },
    {
      "type": "Feature",
      "properties": {
        "name": "Quebrada de Humahuaca",
        "country": "Argentina",
        "countryCode": "AR",
        "category": "natural",
        "rating": 3,
        "description": "UNESCO valley with colorful mountains and pre-Columbian settlements"
      },
      "geometry": { "type": "Point", "coordinates": [-65.3500, -23.2000] }
    },
    {
      "type": "Feature",
      "properties": {
        "name": "Peninsula Valdes",
        "country": "Argentina",
        "countryCode": "AR",
        "category": "natural",
        "rating": 3,
        "description": "UNESCO site for whale watching, penguins, and sea lion colonies"
      },
      "geometry": { "type": "Point", "coordinates": [-63.8667, -42.5167] }
    },
    {
      "type": "Feature",
      "properties": {
        "name": "Buenos Aires (Obelisco)",
        "country": "Argentina",
        "countryCode": "AR",
        "category": "landmark",
        "rating": 4,
        "description": "Capital city with iconic Obelisk monument and vibrant culture"
      },
      "geometry": { "type": "Point", "coordinates": [-58.3816, -34.6037] }
    },
    {
      "type": "Feature",
      "properties": {
        "name": "Mendoza Wine Region",
        "country": "Argentina",
        "countryCode": "AR",
        "category": "landmark",
        "rating": 4,
        "description": "Premier wine country at Andean foothills with world-class Malbec"
      },
      "geometry": { "type": "Point", "coordinates": [-68.8458, -32.8908] }
    },
    {
      "type": "Feature",
      "properties": {
        "name": "Tierra del Fuego National Park",
        "country": "Argentina",
        "countryCode": "AR",
        "category": "natural",
        "rating": 4,
        "description": "Protected wilderness at the end of the world near Ushuaia"
      },
      "geometry": { "type": "Point", "coordinates": [-68.5833, -54.8417] }
    }
  ]
}
