{
  "type": "FeatureCollection",
  "features": [
    {
      "type": "Feature",
      "properties": {
        "name": "Luang Prabang",
        "country": "Laos",
        "countryCode": "LA",
        "category": "landmark",
        "rating": 5,
        "description": "UNESCO town blending Lao and French colonial architecture with morning alms procession"
      },
      "geometry": { "type": "Point", "coordinates": [102.1347, 19.8856] }
    },
    {
      "type": "Feature",
      "properties": {
        "name": "Kuang Si Falls",
        "country": "Laos",
        "countryCode": "LA",
        "category": "natural",
        "rating": 5,
        "description": "Multi-tiered turquoise waterfall cascading through limestone pools"
      },
      "geometry": { "type": "Point", "coordinates": [101.9856, 19.7483] }
    },
    {
      "type": "Feature",
      "properties": {
        "name": "Plain of Jars",
        "country": "Laos",
        "countryCode": "LA",
        "category": "landmark",
        "rating": 3,
        "description": "Mysterious megalithic stone jars scattered across the Xieng Khouang plateau"
      },
      "geometry": { "type": "Point", "coordinates": [103.1667, 19.4333] }
    },
    {
      "type": "Feature",
      "properties": {
        "name": "Pha That Luang",
        "country": "Laos",
        "countryCode": "LA",
        "category": "landmark",
        "rating": 5,
        "description": "Most important national monument, gold-covered Buddhist stupa in Vientiane"
      },
      "geometry": { "type": "Point", "coordinates": [102.6375, 17.9742] }
    },
    {
      "type": "Feature",
      "properties": {
        "name": "Wat Phou",
        "country": "Laos",
        "countryCode": "LA",
        "category": "landmark",
        "rating": 5,
        "description": "UNESCO World Heritage 1,000-year-old Khmer temple complex in Champasak"
      },
      "geometry": { "type": "Point", "coordinates": [105.8167, 14.8500] }
    },
    {
      "type": "Feature",
      "properties": {
        "name": "Vang Vieng",
        "country": "Laos",
        "countryCode": "LA",
        "category": "natural",
        "rating": 4,
        "description": "Stunning karst landscape with Nam Song River, caves, and adventure activities"
      },
      "geometry": { "type": "Point", "coordinates": [102.4500, 18.9167] }
    },
    {
      "type": "Feature",
      "properties": {
        "name": "Si Phan Don (4,000 Islands)",
        "country": "Laos",
        "countryCode": "LA",
        "category": "natural",
        "rating": 4,
        "description": "Mekong River archipelago near Cambodia with waterfalls and rare Irrawaddy dolphins"
      },
      "geometry": { "type": "Point", "coordinates": [105.9500, 13.9500] }
    }
  ]
}
