{
  "type": "FeatureCollection",
  "features": [
    {
      "type": "Feature",
      "properties": {
        "name": "Everest Base Camp",
        "country": "Nepal",
        "countryCode": "NP",
        "category": "extreme",
        "rating": 5,
        "description": "Trek to the foot of the world's highest peak through Sherpa villages and glaciers"
      },
      "geometry": { "type": "Point", "coordinates": [86.8528, 28.0025] }
    },
    {
      "type": "Feature",
      "properties": {
        "name": "Kala Patthar Viewpoint",
        "country": "Nepal",
        "countryCode": "NP",
        "category": "viewpoint",
        "rating": 5,
        "description": "5,500m viewpoint offering the most stunning panorama of Mount Everest"
      },
      "geometry": { "type": "Point", "coordinates": [86.8267, 28.0017] }
    },
    {
      "type": "Feature",
      "properties": {
        "name": "Annapurna Base Camp",
        "country": "Nepal",
        "countryCode": "NP",
        "category": "viewpoint",
        "rating": 5,
        "description": "Himalayan amphitheater surrounded by 8,000m peaks and rhododendron forests"
      },
      "geometry": { "type": "Point", "coordinates": [83.8783, 28.5300] }
    },
    {
      "type": "Feature",
      "properties": {
        "name": "Poon Hill Sunrise",
        "country": "Nepal",
        "countryCode": "NP",
        "category": "viewpoint",
        "rating": 4,
        "description": "Classic Himalayan sunrise viewpoint with 360-degree mountain panoramas"
      },
      "geometry": { "type": "Point", "coordinates": [83.7333, 28.4000] }
    },
    {
      "type": "Feature",
      "properties": {
        "name": "Kathmandu Durbar Square",
        "country": "Nepal",
        "countryCode": "NP",
        "category": "landmark",
        "rating": 4,
        "description": "Ancient royal square with ornate temples, palaces, and living goddess Kumari"
      },
      "geometry": { "type": "Point", "coordinates": [85.3089, 27.7047] }
    }
  ]
}
