{
  "type": "FeatureCollection",
  "features": [
    {
      "type": "Feature",
      "properties": {
        "name": "Table Mountain",
        "country": "South Africa",
        "countryCode": "ZA",
        "category": "natural",
        "rating": 5,
        "description": "Flat-topped icon overlooking Cape Town, one of the New 7 Wonders of Nature"
      },
      "geometry": { "type": "Point", "coordinates": [18.4097, -33.9628] }
    },
    {
      "type": "Feature",
      "properties": {
        "name": "Cape of Good Hope",
        "country": "South Africa",
        "countryCode": "ZA",
        "category": "extreme",
        "rating": 5,
        "description": "Dramatic cliffs at Africa's southwestern tip where two oceans meet"
      },
      "geometry": { "type": "Point", "coordinates": [18.4778, -34.3575] }
    },
    {
      "type": "Feature",
      "properties": {
        "name": "Kruger National Park",
        "country": "South Africa",
        "countryCode": "ZA",
        "category": "natural",
        "rating": 5,
        "description": "South Africa's flagship Big Five safari destination"
      },
      "geometry": { "type": "Point", "coordinates": [31.5000, -24.0000] }
    },
    {
      "type": "Feature",
      "properties": {
        "name": "Blyde River Canyon",
        "country": "South Africa",
        "countryCode": "ZA",
        "category": "viewpoint",
        "rating": 4,
        "description": "One of the largest green canyons with Three Rondavels viewpoint"
      },
      "geometry": { "type": "Point", "coordinates": [30.7833, -24.5833] }
    },
    {
      "type": "Feature",
      "properties": {
        "name": "Drakensberg Mountains",
        "country": "South Africa",
        "countryCode": "ZA",
        "category": "natural",
        "rating": 4,
        "description": "UNESCO mountain wilderness with San rock art and Sani Pass to Lesotho"
      },
      "geometry": { "type": "Point", "coordinates": [29.2500, -29.0000] }
    },
    {
      "type": "Feature",
      "properties": {
        "name": "Chapman's Peak Drive",
        "country": "South Africa",
        "countryCode": "ZA",
        "category": "viewpoint",
        "rating": 4,
        "description": "One of the world's most scenic coastal drives carved into sea cliffs"
      },
      "geometry": { "type": "Point", "coordinates": [18.3575, -34.0856] }
    }
  ]
}
