{
  "type": "FeatureCollection",
  "properties": {
    "trip": 7,
    "totalKm": 13309,
    "stopCount": 17,
    "sightCount": 18,
    "estimatedDrivingDays": 45,
    "countries": [
      "AR",
      "PY",
      "BR",
      "GY",
      "SR",
      "GF",
      "BO",
      "PE"
    ]
  },
  "features": [
    {
      "type": "Feature",
      "geometry": {
        "type": "Point",
        "coordinates": [
          -54.4409,
          -25.6953
        ]
      },
      "properties": {
        "name": "Iguazu Falls",
        "country": "Argentina",
        "iso": "AR",
        "category": "Stop",
        "order": 1,
        "type": "route-stop"
      }
    },
    {
      "type": "Feature",
      "geometry": {
        "type": "Point",
        "coordinates": [
          -57.5759,
          -25.2637
        ]
      },
      "properties": {
        "name": "Asuncion",
        "country": "Paraguay",
        "iso": "PY",
        "category": "Stop",
        "order": 2,
        "type": "route-stop"
      }
    },
    {
      "type": "Feature",
      "geometry": {
        "type": "Point",
        "coordinates": [
          -47.8825,
          -15.7942
        ]
      },
      "properties": {
        "name": "Brasilia",
        "country": "Brazil",
        "iso": "BR",
        "category": "Stop",
        "order": 3,
        "type": "route-stop"
      }
    },
    {
      "type": "Feature",
      "geometry": {
        "type": "Point",
        "coordinates": [
          -60.0217,
          -3.119
        ]
      },
      "properties": {
        "name": "Manaus",
        "country": "Brazil",
        "iso": "BR",
        "category": "Stop",
        "order": 4,
        "type": "route-stop"
      }
    },
    {
      "type": "Feature",
      "geometry": {
        "type": "Point",
        "coordinates": [
          -48.4902,
          -1.4558
        ]
      },
      "properties": {
        "name": "Belem",
        "country": "Brazil",
        "iso": "BR",
        "category": "Stop",
        "order": 5,
        "type": "route-stop"
      }
    },
    {
      "type": "Feature",
      "geometry": {
        "type": "Point",
        "coordinates": [
          -60.675,
          2.8235
        ]
      },
      "properties": {
        "name": "Boa Vista",
        "country": "Brazil",
        "iso": "BR",
        "category": "Stop",
        "order": 6,
        "type": "route-stop"
      }
    },
    {
      "type": "Feature",
      "geometry": {
        "type": "Point",
        "coordinates": [
          -58.1551,
          6.8013
        ]
      },
      "properties": {
        "name": "Georgetown",
        "country": "Guyana",
        "iso": "GY",
        "category": "Stop",
        "order": 7,
        "type": "route-stop"
      }
    },
    {
      "type": "Feature",
      "geometry": {
        "type": "Point",
        "coordinates": [
          -55.1679,
          5.852
        ]
      },
      "properties": {
        "name": "Paramaribo",
        "country": "Suriname",
        "iso": "SR",
        "category": "Stop",
        "order": 8,
        "type": "route-stop"
      }
    },
    {
      "type": "Feature",
      "geometry": {
        "type": "Point",
        "coordinates": [
          -52.3261,
          4.9224
        ]
      },
      "properties": {
        "name": "Cayenne",
        "country": "French Guiana",
        "iso": "GF",
        "category": "Stop",
        "order": 9,
        "type": "route-stop"
      }
    },
    {
      "type": "Feature",
      "geometry": {
        "type": "Point",
        "coordinates": [
          -63.1812,
          -17.7833
        ]
      },
      "properties": {
        "name": "Santa Cruz",
        "country": "Bolivia",
        "iso": "BO",
        "category": "Stop",
        "order": 10,
        "type": "route-stop"
      }
    },
    {
      "type": "Feature",
      "geometry": {
        "type": "Point",
        "coordinates": [
          -68.1193,
          -16.4897
        ]
      },
      "properties": {
        "name": "La Paz",
        "country": "Bolivia",
        "iso": "BO",
        "category": "Stop",
        "order": 11,
        "type": "route-stop"
      }
    },
    {
      "type": "Feature",
      "geometry": {
        "type": "Point",
        "coordinates": [
          -65.255,
          -19.0196
        ]
      },
      "properties": {
        "name": "Sucre",
        "country": "Bolivia",
        "iso": "BO",
        "category": "Stop",
        "order": 12,
        "type": "route-stop"
      }
    },
    {
      "type": "Feature",
      "geometry": {
        "type": "Point",
        "coordinates": [
          -66.825,
          -20.4604
        ]
      },
      "properties": {
        "name": "Uyuni",
        "country": "Bolivia",
        "iso": "BO",
        "category": "Stop",
        "order": 13,
        "type": "route-stop"
      }
    },
    {
      "type": "Feature",
      "geometry": {
        "type": "Point",
        "coordinates": [
          -70.0219,
          -15.8402
        ]
      },
      "properties": {
        "name": "Puno",
        "country": "Peru",
        "iso": "PE",
        "category": "Stop",
        "order": 14,
        "type": "route-stop"
      }
    },
    {
      "type": "Feature",
      "geometry": {
        "type": "Point",
        "coordinates": [
          -71.5375,
          -16.409
        ]
      },
      "properties": {
        "name": "Arequipa",
        "country": "Peru",
        "iso": "PE",
        "category": "Stop",
        "order": 15,
        "type": "route-stop"
      }
    },
    {
      "type": "Feature",
      "geometry": {
        "type": "Point",
        "coordinates": [
          -71.9675,
          -13.532
        ]
      },
      "properties": {
        "name": "Cusco",
        "country": "Peru",
        "iso": "PE",
        "category": "Stop",
        "order": 16,
        "type": "route-stop"
      }
    },
    {
      "type": "Feature",
      "geometry": {
        "type": "Point",
        "coordinates": [
          -77.0428,
          -12.0464
        ]
      },
      "properties": {
        "name": "Lima",
        "country": "Peru",
        "iso": "PE",
        "category": "Stop",
        "order": 17,
        "type": "route-stop"
      }
    },
    {
      "type": "Feature",
      "geometry": {
        "type": "LineString",
        "coordinates": [
          [
            -54.4409,
            -25.6953
          ],
          [
            -57.5759,
            -25.2637
          ],
          [
            -47.8825,
            -15.7942
          ],
          [
            -60.0217,
            -3.119
          ],
          [
            -48.4902,
            -1.4558
          ],
          [
            -60.675,
            2.8235
          ],
          [
            -58.1551,
            6.8013
          ],
          [
            -55.1679,
            5.852
          ],
          [
            -52.3261,
            4.9224
          ],
          [
            -63.1812,
            -17.7833
          ],
          [
            -68.1193,
            -16.4897
          ],
          [
            -65.255,
            -19.0196
          ],
          [
            -66.825,
            -20.4604
          ],
          [
            -70.0219,
            -15.8402
          ],
          [
            -71.5375,
            -16.409
          ],
          [
            -71.9675,
            -13.532
          ],
          [
            -77.0428,
            -12.0464
          ]
        ]
      },
      "properties": {
        "type": "route",
        "totalKm": 13309,
        "stopCount": 17
      }
    }
  ]
}