{
  "type": "FeatureCollection",
  "properties": {
    "trip": 20,
    "totalKm": 8091,
    "stopCount": 19,
    "sightCount": 15,
    "estimatedDrivingDays": 27,
    "countries": [
      "ZA",
      "LS",
      "SZ",
      "MZ",
      "MW",
      "TZ",
      "BI",
      "RW",
      "UG",
      "KE",
      "ET"
    ]
  },
  "features": [
    {
      "type": "Feature",
      "geometry": {
        "type": "Point",
        "coordinates": [
          31.4854,
          -24.0119
        ]
      },
      "properties": {
        "name": "Kruger",
        "country": "South Africa",
        "iso": "ZA",
        "category": "Stop",
        "order": 1,
        "type": "route-stop"
      }
    },
    {
      "type": "Feature",
      "geometry": {
        "type": "Point",
        "coordinates": [
          31.1869,
          -26.4728
        ]
      },
      "properties": {
        "name": "Drakensberg",
        "country": "South Africa",
        "iso": "ZA",
        "category": "Stop",
        "order": 2,
        "type": "route-stop"
      }
    },
    {
      "type": "Feature",
      "geometry": {
        "type": "Point",
        "coordinates": [
          27.4833,
          -29.3167
        ]
      },
      "properties": {
        "name": "Maseru",
        "country": "Lesotho",
        "iso": "LS",
        "category": "Stop",
        "order": 3,
        "type": "route-stop"
      }
    },
    {
      "type": "Feature",
      "geometry": {
        "type": "Point",
        "coordinates": [
          31.1333,
          -26.3167
        ]
      },
      "properties": {
        "name": "Mbabane",
        "country": "Eswatini",
        "iso": "SZ",
        "category": "Stop",
        "order": 4,
        "type": "route-stop"
      }
    },
    {
      "type": "Feature",
      "geometry": {
        "type": "Point",
        "coordinates": [
          32.5892,
          -25.9692
        ]
      },
      "properties": {
        "name": "Maputo",
        "country": "Mozambique",
        "iso": "MZ",
        "category": "Stop",
        "order": 5,
        "type": "route-stop"
      }
    },
    {
      "type": "Feature",
      "geometry": {
        "type": "Point",
        "coordinates": [
          31.85,
          -13.0833
        ]
      },
      "properties": {
        "name": "Blantyre",
        "country": "Malawi",
        "iso": "MW",
        "category": "Stop",
        "order": 6,
        "type": "route-stop"
      }
    },
    {
      "type": "Feature",
      "geometry": {
        "type": "Point",
        "coordinates": [
          39.2083,
          -6.7924
        ]
      },
      "properties": {
        "name": "Dar es Salaam",
        "country": "Tanzania",
        "iso": "TZ",
        "category": "Stop",
        "order": 7,
        "type": "route-stop"
      }
    },
    {
      "type": "Feature",
      "geometry": {
        "type": "Point",
        "coordinates": [
          39.188,
          -6.1659
        ]
      },
      "properties": {
        "name": "Zanzibar",
        "country": "Tanzania",
        "iso": "TZ",
        "category": "Stop",
        "order": 8,
        "type": "route-stop"
      }
    },
    {
      "type": "Feature",
      "geometry": {
        "type": "Point",
        "coordinates": [
          35.5857,
          -3.2408
        ]
      },
      "properties": {
        "name": "Ngorongoro",
        "country": "Tanzania",
        "iso": "TZ",
        "category": "Stop",
        "order": 9,
        "type": "route-stop"
      }
    },
    {
      "type": "Feature",
      "geometry": {
        "type": "Point",
        "coordinates": [
          34.8333,
          -2.3333
        ]
      },
      "properties": {
        "name": "Serengeti",
        "country": "Tanzania",
        "iso": "TZ",
        "category": "Stop",
        "order": 10,
        "type": "route-stop"
      }
    },
    {
      "type": "Feature",
      "geometry": {
        "type": "Point",
        "coordinates": [
          29.3599,
          -3.3614
        ]
      },
      "properties": {
        "name": "Bujumbura",
        "country": "Burundi",
        "iso": "BI",
        "category": "Stop",
        "order": 11,
        "type": "route-stop"
      }
    },
    {
      "type": "Feature",
      "geometry": {
        "type": "Point",
        "coordinates": [
          30.0619,
          -1.9403
        ]
      },
      "properties": {
        "name": "Kigali",
        "country": "Rwanda",
        "iso": "RW",
        "category": "Stop",
        "order": 12,
        "type": "route-stop"
      }
    },
    {
      "type": "Feature",
      "geometry": {
        "type": "Point",
        "coordinates": [
          29.6739,
          -1.0489
        ]
      },
      "properties": {
        "name": "Bwindi",
        "country": "Uganda",
        "iso": "UG",
        "category": "Stop",
        "order": 13,
        "type": "route-stop"
      }
    },
    {
      "type": "Feature",
      "geometry": {
        "type": "Point",
        "coordinates": [
          32.5825,
          0.3476
        ]
      },
      "properties": {
        "name": "Kampala",
        "country": "Uganda",
        "iso": "UG",
        "category": "Stop",
        "order": 14,
        "type": "route-stop"
      }
    },
    {
      "type": "Feature",
      "geometry": {
        "type": "Point",
        "coordinates": [
          35.1439,
          -1.4061
        ]
      },
      "properties": {
        "name": "Masai Mara",
        "country": "Kenya",
        "iso": "KE",
        "category": "Stop",
        "order": 15,
        "type": "route-stop"
      }
    },
    {
      "type": "Feature",
      "geometry": {
        "type": "Point",
        "coordinates": [
          36.8219,
          -1.2921
        ]
      },
      "properties": {
        "name": "Nairobi",
        "country": "Kenya",
        "iso": "KE",
        "category": "Stop",
        "order": 16,
        "type": "route-stop"
      }
    },
    {
      "type": "Feature",
      "geometry": {
        "type": "Point",
        "coordinates": [
          38.7578,
          9.0054
        ]
      },
      "properties": {
        "name": "Addis Ababa",
        "country": "Ethiopia",
        "iso": "ET",
        "category": "Stop",
        "order": 17,
        "type": "route-stop"
      }
    },
    {
      "type": "Feature",
      "geometry": {
        "type": "Point",
        "coordinates": [
          38.98,
          12.0319
        ]
      },
      "properties": {
        "name": "Lalibela",
        "country": "Ethiopia",
        "iso": "ET",
        "category": "Stop",
        "order": 18,
        "type": "route-stop"
      }
    },
    {
      "type": "Feature",
      "geometry": {
        "type": "Point",
        "coordinates": [
          38.0667,
          13.3833
        ]
      },
      "properties": {
        "name": "Gondar",
        "country": "Ethiopia",
        "iso": "ET",
        "category": "Stop",
        "order": 19,
        "type": "route-stop"
      }
    },
    {
      "type": "Feature",
      "geometry": {
        "type": "LineString",
        "coordinates": [
          [
            31.4854,
            -24.0119
          ],
          [
            31.1869,
            -26.4728
          ],
          [
            27.4833,
            -29.3167
          ],
          [
            31.1333,
            -26.3167
          ],
          [
            32.5892,
            -25.9692
          ],
          [
            31.85,
            -13.0833
          ],
          [
            39.2083,
            -6.7924
          ],
          [
            39.188,
            -6.1659
          ],
          [
            35.5857,
            -3.2408
          ],
          [
            34.8333,
            -2.3333
          ],
          [
            29.3599,
            -3.3614
          ],
          [
            30.0619,
            -1.9403
          ],
          [
            29.6739,
            -1.0489
          ],
          [
            32.5825,
            0.3476
          ],
          [
            35.1439,
            -1.4061
          ],
          [
            36.8219,
            -1.2921
          ],
          [
            38.7578,
            9.0054
          ],
          [
            38.98,
            12.0319
          ],
          [
            38.0667,
            13.3833
          ]
        ]
      },
      "properties": {
        "type": "route",
        "totalKm": 8091,
        "stopCount": 19
      }
    }
  ]
}