{
  "type": "FeatureCollection",
  "properties": {
    "trip": 2,
    "totalKm": 6753,
    "stopCount": 12,
    "sightCount": 15,
    "estimatedDrivingDays": 23,
    "countries": [
      "IN",
      "NP",
      "BD"
    ]
  },
  "features": [
    {
      "type": "Feature",
      "geometry": {
        "type": "Point",
        "coordinates": [
          78.0081,
          27.1767
        ]
      },
      "properties": {
        "name": "Agra",
        "country": "India",
        "iso": "IN",
        "category": "Stop",
        "order": 1,
        "type": "route-stop"
      }
    },
    {
      "type": "Feature",
      "geometry": {
        "type": "Point",
        "coordinates": [
          82.9913,
          25.3176
        ]
      },
      "properties": {
        "name": "Varanasi",
        "country": "India",
        "iso": "IN",
        "category": "Stop",
        "order": 2,
        "type": "route-stop"
      }
    },
    {
      "type": "Feature",
      "geometry": {
        "type": "Point",
        "coordinates": [
          72.8777,
          19.076
        ]
      },
      "properties": {
        "name": "Mumbai",
        "country": "India",
        "iso": "IN",
        "category": "Stop",
        "order": 3,
        "type": "route-stop"
      }
    },
    {
      "type": "Feature",
      "geometry": {
        "type": "Point",
        "coordinates": [
          74.124,
          15.2993
        ]
      },
      "properties": {
        "name": "Goa",
        "country": "India",
        "iso": "IN",
        "category": "Stop",
        "order": 4,
        "type": "route-stop"
      }
    },
    {
      "type": "Feature",
      "geometry": {
        "type": "Point",
        "coordinates": [
          76.2673,
          9.9312
        ]
      },
      "properties": {
        "name": "Kochi",
        "country": "India",
        "iso": "IN",
        "category": "Stop",
        "order": 5,
        "type": "route-stop"
      }
    },
    {
      "type": "Feature",
      "geometry": {
        "type": "Point",
        "coordinates": [
          80.2707,
          13.0827
        ]
      },
      "properties": {
        "name": "Chennai",
        "country": "India",
        "iso": "IN",
        "category": "Stop",
        "order": 6,
        "type": "route-stop"
      }
    },
    {
      "type": "Feature",
      "geometry": {
        "type": "Point",
        "coordinates": [
          88.3639,
          22.5726
        ]
      },
      "properties": {
        "name": "Kolkata",
        "country": "India",
        "iso": "IN",
        "category": "Stop",
        "order": 7,
        "type": "route-stop"
      }
    },
    {
      "type": "Feature",
      "geometry": {
        "type": "Point",
        "coordinates": [
          88.2627,
          27.041
        ]
      },
      "properties": {
        "name": "Darjeeling",
        "country": "India",
        "iso": "IN",
        "category": "Stop",
        "order": 8,
        "type": "route-stop"
      }
    },
    {
      "type": "Feature",
      "geometry": {
        "type": "Point",
        "coordinates": [
          85.324,
          27.7172
        ]
      },
      "properties": {
        "name": "Kathmandu",
        "country": "Nepal",
        "iso": "NP",
        "category": "Stop",
        "order": 9,
        "type": "route-stop"
      }
    },
    {
      "type": "Feature",
      "geometry": {
        "type": "Point",
        "coordinates": [
          83.9856,
          28.2096
        ]
      },
      "properties": {
        "name": "Pokhara",
        "country": "Nepal",
        "iso": "NP",
        "category": "Stop",
        "order": 10,
        "type": "route-stop"
      }
    },
    {
      "type": "Feature",
      "geometry": {
        "type": "Point",
        "coordinates": [
          90.4125,
          23.8103
        ]
      },
      "properties": {
        "name": "Dhaka",
        "country": "Bangladesh",
        "iso": "BD",
        "category": "Stop",
        "order": 11,
        "type": "route-stop"
      }
    },
    {
      "type": "Feature",
      "geometry": {
        "type": "Point",
        "coordinates": [
          91.83,
          22.33
        ]
      },
      "properties": {
        "name": "Chittagong",
        "country": "Bangladesh",
        "iso": "BD",
        "category": "Stop",
        "order": 12,
        "type": "route-stop"
      }
    },
    {
      "type": "Feature",
      "geometry": {
        "type": "LineString",
        "coordinates": [
          [
            78.0081,
            27.1767
          ],
          [
            82.9913,
            25.3176
          ],
          [
            72.8777,
            19.076
          ],
          [
            74.124,
            15.2993
          ],
          [
            76.2673,
            9.9312
          ],
          [
            80.2707,
            13.0827
          ],
          [
            88.3639,
            22.5726
          ],
          [
            88.2627,
            27.041
          ],
          [
            85.324,
            27.7172
          ],
          [
            83.9856,
            28.2096
          ],
          [
            90.4125,
            23.8103
          ],
          [
            91.83,
            22.33
          ]
        ]
      },
      "properties": {
        "type": "route",
        "totalKm": 6753,
        "stopCount": 12
      }
    }
  ]
}